header: 
  seq: 6391
  stamp: 
    secs: 1557852517
    nsecs: 541924928
  frame_id: "base_link"
status: 
  status: 0
  service: 1
latitude: 40.6339342
longitude: -8.6605012
altitude: 68.0517161507
position_covariance: [0.294849, 0.0, 0.0, 0.0, 0.294849, 0.0, 0.0, 0.0, 0.605284]
position_covariance_type: 2
---
header: 
  seq: 6392
  stamp: 
    secs: 1557852517
    nsecs: 642922624
  frame_id: "base_link"
status: 
  status: 0
  service: 1
latitude: 40.6339335
longitude: -8.6605012
altitude: 68.0417150715
position_covariance: [0.294849, 0.0, 0.0, 0.0, 0.294849, 0.0, 0.0, 0.0, 0.605284]
position_covariance_type: 2
---
header: 
  seq: 6393
  stamp: 
    secs: 1557852517
    nsecs: 742920320
  frame_id: "base_link"
status: 
  status: 0
  service: 1
latitude: 40.6339329
longitude: -8.660501
altitude: 68.0327145358
position_covariance: [0.30580900000000005, 0.0, 0.0, 0.0, 0.30580900000000005, 0.0, 0.0, 0.0, 0.625681]
position_covariance_type: 2
---
header: 
  seq: 6394
  stamp: 
    secs: 1557852517
    nsecs: 842918784
  frame_id: "base_link"
status: 
  status: 0
  service: 1
latitude: 40.6339324
longitude: -8.6605008
altitude: 68.0237141543
position_covariance: [0.30580900000000005, 0.0, 0.0, 0.0, 0.30580900000000005, 0.0, 0.0, 0.0, 0.625681]
position_covariance_type: 2
---
header: 
  seq: 6395
  stamp: 
    secs: 1557852517
    nsecs: 942917248
  frame_id: "base_link"
status: 
  status: 0
  service: 1
latitude: 40.6339318
longitude: -8.6605004
altitude: 68.0167140079
position_covariance: [0.31584400000000007, 0.0, 0.0, 0.0, 0.31584400000000007, 0.0, 0.0, 0.0, 0.6448090000000001]
position_covariance_type: 2
---
header: 
  seq: 6396
  stamp: 
    secs: 1557852518
    nsecs:  39914944
  frame_id: "base_link"
status: 
  status: 0
  service: 1
latitude: 40.6339313
longitude: -8.6605001
altitude: 68.0097138211
position_covariance: [0.31584400000000007, 0.0, 0.0, 0.0, 0.31584400000000007, 0.0, 0.0, 0.0, 0.6448090000000001]
position_covariance_type: 2
---
header: 
  seq: 6397
  stamp: 
    secs: 1557852518
    nsecs: 143913408
  frame_id: "base_link"
status: 
  status: 0
  service: 1
latitude: 40.6339309
longitude: -8.6604996
altitude: 67.9997141777
position_covariance: [0.31248100000000006, 0.0, 0.0, 0.0, 0.31248100000000006, 0.0, 0.0, 0.0, 0.6432040000000001]
position_covariance_type: 2
---
header: 
  seq: 6398
  stamp: 
    secs: 1557852518
    nsecs: 239911360
  frame_id: "base_link"
status: 
  status: 0
  service: 1
latitude: 40.6339305
longitude: -8.6604992
altitude: 67.9907143397
position_covariance: [0.31248100000000006, 0.0, 0.0, 0.0, 0.31248100000000006, 0.0, 0.0, 0.0, 0.6432040000000001]
position_covariance_type: 2
---
header: 
  seq: 6399
  stamp: 
    secs: 1557852518
    nsecs: 343908032
  frame_id: "base_link"
status: 
  status: 0
  service: 1
latitude: 40.63393
longitude: -8.6604986
altitude: 67.9827147368
position_covariance: [0.30802500000000005, 0.0, 0.0, 0.0, 0.30802500000000005, 0.0, 0.0, 0.0, 0.6464160000000001]
position_covariance_type: 2
---
header: 
  seq: 6400
  stamp: 
    secs: 1557852518
    nsecs: 444907008
  frame_id: "base_link"
status: 
  status: 0
  service: 1
latitude: 40.6339297
longitude: -8.6604981
altitude: 67.9757152476
position_covariance: [0.30802500000000005, 0.0, 0.0, 0.0, 0.30802500000000005, 0.0, 0.0, 0.0, 0.6464160000000001]
position_covariance_type: 2
---
header: 
  seq: 6401
  stamp: 
    secs: 1557852518
    nsecs: 543904704
  frame_id: "base_link"
status: 
  status: 0
  service: 1
latitude: 40.6339293
longitude: -8.6604975
altitude: 67.9747157989
position_covariance: [0.30360100000000007, 0.0, 0.0, 0.0, 0.30360100000000007, 0.0, 0.0, 0.0, 0.6464160000000001]
position_covariance_type: 2
---
header: 
  seq: 6402
  stamp: 
    secs: 1557852518
    nsecs: 644901376
  frame_id: "base_link"
status: 
  status: 0
  service: 1
latitude: 40.633929
longitude: -8.6604969
altitude: 67.9727165044
position_covariance: [0.30360100000000007, 0.0, 0.0, 0.0, 0.30360100000000007, 0.0, 0.0, 0.0, 0.6464160000000001]
position_covariance_type: 2
---
header: 
  seq: 6403
  stamp: 
    secs: 1557852518
    nsecs: 744899584
  frame_id: "base_link"
status: 
  status: 0
  service: 1
latitude: 40.6339287
longitude: -8.6604962
altitude: 67.9727174045
position_covariance: [0.29920900000000006, 0.0, 0.0, 0.0, 0.29920900000000006, 0.0, 0.0, 0.0, 0.6480250000000001]
position_covariance_type: 2
---
header: 
  seq: 6404
  stamp: 
    secs: 1557852518
    nsecs: 841898048
  frame_id: "base_link"
status: 
  status: 0
  service: 1
latitude: 40.6339285
longitude: -8.6604955
altitude: 67.9747184588
position_covariance: [0.29920900000000006, 0.0, 0.0, 0.0, 0.29920900000000006, 0.0, 0.0, 0.0, 0.6480250000000001]
position_covariance_type: 2
---
header: 
  seq: 6405
  stamp: 
    secs: 1557852518
    nsecs: 941896768
  frame_id: "base_link"
status: 
  status: 0
  service: 1
latitude: 40.6339283
longitude: -8.6604947
altitude: 67.9787197077
position_covariance: [0.294849, 0.0, 0.0, 0.0, 0.294849, 0.0, 0.0, 0.0, 0.6480250000000001]
position_covariance_type: 2
---
header: 
  seq: 6406
  stamp: 
    secs: 1557852519
    nsecs:  41893952
  frame_id: "base_link"
status: 
  status: 0
  service: 1
latitude: 40.6339281
longitude: -8.6604939
altitude: 67.9817209567
position_covariance: [0.294849, 0.0, 0.0, 0.0, 0.294849, 0.0, 0.0, 0.0, 0.6480250000000001]
position_covariance_type: 2
---
header: 
  seq: 6407
  stamp: 
    secs: 1557852519
    nsecs: 142891904
  frame_id: "base_link"
status: 
  status: 0
  service: 1
latitude: 40.6339278
longitude: -8.660493
altitude: 67.9847222461
position_covariance: [0.2916, 0.0, 0.0, 0.0, 0.2916, 0.0, 0.0, 0.0, 0.6496360000000001]
position_covariance_type: 2
---
header: 
  seq: 6408
  stamp: 
    secs: 1557852519
    nsecs: 242889856
  frame_id: "base_link"
status: 
  status: 0
  service: 1
latitude: 40.6339277
longitude: -8.6604921
altitude: 67.9877238439
position_covariance: [0.2916, 0.0, 0.0, 0.0, 0.2916, 0.0, 0.0, 0.0, 0.6496360000000001]
position_covariance_type: 2
---
header: 
  seq: 6409
  stamp: 
    secs: 1557852519
    nsecs: 342888064
  frame_id: "base_link"
status: 
  status: 0
  service: 1
latitude: 40.6339275
longitude: -8.6604911
altitude: 67.9837254822
position_covariance: [0.28836900000000004, 0.0, 0.0, 0.0, 0.28836900000000004, 0.0, 0.0, 0.0, 0.6512490000000001]
position_covariance_type: 2
---
header: 
  seq: 6410
  stamp: 
    secs: 1557852519
    nsecs: 442886528
  frame_id: "base_link"
status: 
  status: 0
  service: 1
latitude: 40.6339273
longitude: -8.6604901
altitude: 67.9697271205
position_covariance: [0.28836900000000004, 0.0, 0.0, 0.0, 0.28836900000000004, 0.0, 0.0, 0.0, 0.6512490000000001]
position_covariance_type: 2
---
header: 
  seq: 6411
  stamp: 
    secs: 1557852519
    nsecs: 539885248
  frame_id: "base_link"
status: 
  status: 0
  service: 1
latitude: 40.6339272
longitude: -8.660489
altitude: 67.9507291076
position_covariance: [0.28302400000000005, 0.0, 0.0, 0.0, 0.28302400000000005, 0.0, 0.0, 0.0, 0.6496360000000001]
position_covariance_type: 2
---
header: 
  seq: 6412
  stamp: 
    secs: 1557852519
    nsecs: 639883968
  frame_id: "base_link"
status: 
  status: 0
  service: 1
latitude: 40.6339271
longitude: -8.6604879
altitude: 67.9317310947
position_covariance: [0.28302400000000005, 0.0, 0.0, 0.0, 0.28302400000000005, 0.0, 0.0, 0.0, 0.6496360000000001]
position_covariance_type: 2
---
header: 
  seq: 6413
  stamp: 
    secs: 1557852519
    nsecs: 743881664
  frame_id: "base_link"
status: 
  status: 0
  service: 1
latitude: 40.633927
longitude: -8.6604866
altitude: 67.9127334711
position_covariance: [0.28302400000000005, 0.0, 0.0, 0.0, 0.28302400000000005, 0.0, 0.0, 0.0, 0.6528640000000001]
position_covariance_type: 2
---
header: 
  seq: 6414
  stamp: 
    secs: 1557852519
    nsecs: 843879872
  frame_id: "base_link"
status: 
  status: 0
  service: 1
latitude: 40.633927
longitude: -8.6604854
altitude: 67.892735807
position_covariance: [0.28302400000000005, 0.0, 0.0, 0.0, 0.28302400000000005, 0.0, 0.0, 0.0, 0.6528640000000001]
position_covariance_type: 2
---
header: 
  seq: 6415
  stamp: 
    secs: 1557852519
    nsecs: 943878592
  frame_id: "base_link"
status: 
  status: 0
  service: 1
latitude: 40.6339269
longitude: -8.6604841
altitude: 67.8767381834
position_covariance: [0.279841, 0.0, 0.0, 0.0, 0.279841, 0.0, 0.0, 0.0, 0.6512490000000001]
position_covariance_type: 2
---
header: 
  seq: 6416
  stamp: 
    secs: 1557852520
    nsecs:  44877312
  frame_id: "base_link"
status: 
  status: 0
  service: 1
latitude: 40.6339269
longitude: -8.6604828
altitude: 67.859740714
position_covariance: [0.279841, 0.0, 0.0, 0.0, 0.279841, 0.0, 0.0, 0.0, 0.6512490000000001]
position_covariance_type: 2
---
header: 
  seq: 6417
  stamp: 
    secs: 1557852520
    nsecs: 140875008
  frame_id: "base_link"
status: 
  status: 0
  service: 1
latitude: 40.6339269
longitude: -8.6604815
altitude: 67.8427432445
position_covariance: [0.277729, 0.0, 0.0, 0.0, 0.277729, 0.0, 0.0, 0.0, 0.6496360000000001]
position_covariance_type: 2
---
header: 
  seq: 6418
  stamp: 
    secs: 1557852520
    nsecs: 243873728
  frame_id: "base_link"
status: 
  status: 0
  service: 1
latitude: 40.6339269
longitude: -8.66048
altitude: 67.8237461644
position_covariance: [0.277729, 0.0, 0.0, 0.0, 0.277729, 0.0, 0.0, 0.0, 0.6496360000000001]
position_covariance_type: 2
---
header: 
  seq: 6419
  stamp: 
    secs: 1557852520
    nsecs: 341872448
  frame_id: "base_link"
status: 
  status: 0
  service: 1
latitude: 40.633927
longitude: -8.6604786
altitude: 67.8087490438
position_covariance: [0.275625, 0.0, 0.0, 0.0, 0.275625, 0.0, 0.0, 0.0, 0.6496360000000001]
position_covariance_type: 2
---
header: 
  seq: 6420
  stamp: 
    secs: 1557852520
    nsecs: 441870400
  frame_id: "base_link"
status: 
  status: 0
  service: 1
latitude: 40.633927
longitude: -8.6604772
altitude: 67.790751769
position_covariance: [0.275625, 0.0, 0.0, 0.0, 0.275625, 0.0, 0.0, 0.0, 0.6496360000000001]
position_covariance_type: 2
---
header: 
  seq: 6421
  stamp: 
    secs: 1557852520
    nsecs: 541869120
  frame_id: "base_link"
status: 
  status: 0
  service: 1
latitude: 40.6339271
longitude: -8.6604757
altitude: 67.7727548431
position_covariance: [0.27457600000000004, 0.0, 0.0, 0.0, 0.27457600000000004, 0.0, 0.0, 0.0, 0.6512490000000001]
position_covariance_type: 2
---
header: 
  seq: 6422
  stamp: 
    secs: 1557852520
    nsecs: 642867072
  frame_id: "base_link"
status: 
  status: 0
  service: 1
latitude: 40.6339271
longitude: -8.6604742
altitude: 67.7527577629
position_covariance: [0.27457600000000004, 0.0, 0.0, 0.0, 0.27457600000000004, 0.0, 0.0, 0.0, 0.6512490000000001]
position_covariance_type: 2
---
header: 
  seq: 6423
  stamp: 
    secs: 1557852520
    nsecs: 738864768
  frame_id: "base_link"
status: 
  status: 0
  service: 1
latitude: 40.6339272
longitude: -8.6604727
altitude: 67.734760837
position_covariance: [0.27457600000000004, 0.0, 0.0, 0.0, 0.27457600000000004, 0.0, 0.0, 0.0, 0.6512490000000001]
position_covariance_type: 2
---
header: 
  seq: 6424
  stamp: 
    secs: 1557852520
    nsecs: 838862720
  frame_id: "base_link"
status: 
  status: 0
  service: 1
latitude: 40.6339273
longitude: -8.6604711
altitude: 67.7147641057
position_covariance: [0.27457600000000004, 0.0, 0.0, 0.0, 0.27457600000000004, 0.0, 0.0, 0.0, 0.6512490000000001]
position_covariance_type: 2
---
header: 
  seq: 6425
  stamp: 
    secs: 1557852520
    nsecs: 938861184
  frame_id: "base_link"
status: 
  status: 0
  service: 1
latitude: 40.6339274
longitude: -8.6604695
altitude: 67.6967673744
position_covariance: [0.27457600000000004, 0.0, 0.0, 0.0, 0.27457600000000004, 0.0, 0.0, 0.0, 0.6512490000000001]
position_covariance_type: 2
---
header: 
  seq: 6426
  stamp: 
    secs: 1557852521
    nsecs:  39858624
  frame_id: "base_link"
status: 
  status: 0
  service: 1
latitude: 40.6339276
longitude: -8.6604679
altitude: 67.6787707972
position_covariance: [0.27457600000000004, 0.0, 0.0, 0.0, 0.27457600000000004, 0.0, 0.0, 0.0, 0.6512490000000001]
position_covariance_type: 2
---
header: 
  seq: 6427
  stamp: 
    secs: 1557852521
    nsecs: 139856064
  frame_id: "base_link"
status: 
  status: 0
  service: 1
latitude: 40.6339277
longitude: -8.6604663
altitude: 67.6627740659
position_covariance: [0.27040000000000003, 0.0, 0.0, 0.0, 0.27040000000000003, 0.0, 0.0, 0.0, 0.6464160000000001]
position_covariance_type: 2
---
header: 
  seq: 6428
  stamp: 
    secs: 1557852521
    nsecs: 239853504
  frame_id: "base_link"
status: 
  status: 0
  service: 1
latitude: 40.6339278
longitude: -8.6604648
altitude: 67.6477771399
position_covariance: [0.27040000000000003, 0.0, 0.0, 0.0, 0.27040000000000003, 0.0, 0.0, 0.0, 0.6464160000000001]
position_covariance_type: 2
---
header: 
  seq: 6429
  stamp: 
    secs: 1557852521
    nsecs: 343851968
  frame_id: "base_link"
status: 
  status: 0
  service: 1
latitude: 40.6339279
longitude: -8.6604633
altitude: 67.6307802139
position_covariance: [0.268324, 0.0, 0.0, 0.0, 0.268324, 0.0, 0.0, 0.0, 0.6448090000000001]
position_covariance_type: 2
---
header: 
  seq: 6430
  stamp: 
    secs: 1557852521
    nsecs: 444847872
  frame_id: "base_link"
status: 
  status: 0
  service: 1
latitude: 40.6339279
longitude: -8.6604619
altitude: 67.6127829391
position_covariance: [0.268324, 0.0, 0.0, 0.0, 0.268324, 0.0, 0.0, 0.0, 0.6448090000000001]
position_covariance_type: 2
---
header: 
  seq: 6431
  stamp: 
    secs: 1557852521
    nsecs: 540846336
  frame_id: "base_link"
status: 
  status: 0
  service: 1
latitude: 40.6339278
longitude: -8.6604606
altitude: 67.5927853155
position_covariance: [0.267289, 0.0, 0.0, 0.0, 0.267289, 0.0, 0.0, 0.0, 0.6448090000000001]
position_covariance_type: 2
---
header: 
  seq: 6432
  stamp: 
    secs: 1557852521
    nsecs: 644844544
  frame_id: "base_link"
status: 
  status: 0
  service: 1
latitude: 40.6339276
longitude: -8.6604592
altitude: 67.5717877323
position_covariance: [0.267289, 0.0, 0.0, 0.0, 0.267289, 0.0, 0.0, 0.0, 0.6448090000000001]
position_covariance_type: 2
---
header: 
  seq: 6433
  stamp: 
    secs: 1557852521
    nsecs: 740841216
  frame_id: "base_link"
status: 
  status: 0
  service: 1
latitude: 40.6339273
longitude: -8.6604579
altitude: 67.5547898003
position_covariance: [0.263169, 0.0, 0.0, 0.0, 0.263169, 0.0, 0.0, 0.0, 0.6416010000000001]
position_covariance_type: 2
---
header: 
  seq: 6434
  stamp: 
    secs: 1557852521
    nsecs: 841840960
  frame_id: "base_link"
status: 
  status: 0
  service: 1
latitude: 40.6339269
longitude: -8.6604567
altitude: 67.5377915195
position_covariance: [0.263169, 0.0, 0.0, 0.0, 0.263169, 0.0, 0.0, 0.0, 0.6416010000000001]
position_covariance_type: 2
---
header: 
  seq: 6435
  stamp: 
    secs: 1557852521
    nsecs: 941838400
  frame_id: "base_link"
status: 
  status: 0
  service: 1
latitude: 40.6339263
longitude: -8.6604556
altitude: 67.5207927357
position_covariance: [0.256036, 0.0, 0.0, 0.0, 0.256036, 0.0, 0.0, 0.0, 0.6336160000000001]
position_covariance_type: 2
---
header: 
  seq: 6436
  stamp: 
    secs: 1557852522
    nsecs:  41837120
  frame_id: "base_link"
status: 
  status: 0
  service: 1
latitude: 40.6339257
longitude: -8.6604545
altitude: 67.5057939519
position_covariance: [0.256036, 0.0, 0.0, 0.0, 0.256036, 0.0, 0.0, 0.0, 0.6336160000000001]
position_covariance_type: 2
---
header: 
  seq: 6437
  stamp: 
    secs: 1557852522
    nsecs: 142835584
  frame_id: "base_link"
status: 
  status: 0
  service: 1
latitude: 40.6339251
longitude: -8.6604535
altitude: 67.4897949735
position_covariance: [0.254016, 0.0, 0.0, 0.0, 0.254016, 0.0, 0.0, 0.0, 0.6336160000000001]
position_covariance_type: 2
---
header: 
  seq: 6438
  stamp: 
    secs: 1557852522
    nsecs: 238834048
  frame_id: "base_link"
status: 
  status: 0
  service: 1
latitude: 40.6339244
longitude: -8.6604526
altitude: 67.4737956462
position_covariance: [0.254016, 0.0, 0.0, 0.0, 0.254016, 0.0, 0.0, 0.0, 0.6336160000000001]
position_covariance_type: 2
---
header: 
  seq: 6439
  stamp: 
    secs: 1557852522
    nsecs: 342830464
  frame_id: "base_link"
status: 
  status: 0
  service: 1
latitude: 40.6339236
longitude: -8.6604518
altitude: 67.4557959701
position_covariance: [0.252004, 0.0, 0.0, 0.0, 0.252004, 0.0, 0.0, 0.0, 0.6304360000000001]
position_covariance_type: 2
---
header: 
  seq: 6440
  stamp: 
    secs: 1557852522
    nsecs: 438828160
  frame_id: "base_link"
status: 
  status: 0
  service: 1
latitude: 40.6339229
longitude: -8.6604512
altitude: 67.4377960589
position_covariance: [0.252004, 0.0, 0.0, 0.0, 0.252004, 0.0, 0.0, 0.0, 0.6304360000000001]
position_covariance_type: 2
---
header: 
  seq: 6441
  stamp: 
    secs: 1557852522
    nsecs: 539826368
  frame_id: "base_link"
status: 
  status: 0
  service: 1
latitude: 40.6339222
longitude: -8.6604507
altitude: 67.419795953
position_covariance: [0.249001, 0.0, 0.0, 0.0, 0.249001, 0.0, 0.0, 0.0, 0.6288490000000001]
position_covariance_type: 2
---
header: 
  seq: 6442
  stamp: 
    secs: 1557852522
    nsecs: 643824832
  frame_id: "base_link"
status: 
  status: 0
  service: 1
latitude: 40.6339215
longitude: -8.6604504
altitude: 67.4027954578
position_covariance: [0.249001, 0.0, 0.0, 0.0, 0.249001, 0.0, 0.0, 0.0, 0.6288490000000001]
position_covariance_type: 2
---
header: 
  seq: 6443
  stamp: 
    secs: 1557852522
    nsecs: 743824064
  frame_id: "base_link"
status: 
  status: 0
  service: 1
latitude: 40.6339209
longitude: -8.6604502
altitude: 67.3867949221
position_covariance: [0.247009, 0.0, 0.0, 0.0, 0.247009, 0.0, 0.0, 0.0, 0.627264]
position_covariance_type: 2
---
header: 
  seq: 6444
  stamp: 
    secs: 1557852522
    nsecs: 839821760
  frame_id: "base_link"
status: 
  status: 0
  service: 1
latitude: 40.6339203
longitude: -8.6604501
altitude: 67.3707941917
position_covariance: [0.247009, 0.0, 0.0, 0.0, 0.247009, 0.0, 0.0, 0.0, 0.627264]
position_covariance_type: 2
---
header: 
  seq: 6445
  stamp: 
    secs: 1557852522
    nsecs: 944820224
  frame_id: "base_link"
status: 
  status: 0
  service: 1
latitude: 40.6339197
longitude: -8.66045
altitude: 67.3527934614
position_covariance: [0.24601599999999998, 0.0, 0.0, 0.0, 0.24601599999999998, 0.0, 0.0, 0.0, 0.6288490000000001]
position_covariance_type: 2
---
header: 
  seq: 6446
  stamp: 
    secs: 1557852523
    nsecs:  40818176
  frame_id: "base_link"
status: 
  status: 0
  service: 1
latitude: 40.6339192
longitude: -8.6604498
altitude: 67.3337930799
position_covariance: [0.24601599999999998, 0.0, 0.0, 0.0, 0.24601599999999998, 0.0, 0.0, 0.0, 0.6288490000000001]
position_covariance_type: 2
---
header: 
  seq: 6447
  stamp: 
    secs: 1557852523
    nsecs: 144816384
  frame_id: "base_link"
status: 
  status: 0
  service: 1
latitude: 40.6339188
longitude: -8.6604495
altitude: 67.3147930471
position_covariance: [0.245025, 0.0, 0.0, 0.0, 0.245025, 0.0, 0.0, 0.0, 0.6304360000000001]
position_covariance_type: 2
---
header: 
  seq: 6448
  stamp: 
    secs: 1557852523
    nsecs: 244813312
  frame_id: "base_link"
status: 
  status: 0
  service: 1
latitude: 40.6339184
longitude: -8.6604491
altitude: 67.2957932091
position_covariance: [0.245025, 0.0, 0.0, 0.0, 0.245025, 0.0, 0.0, 0.0, 0.6304360000000001]
position_covariance_type: 2
---
header: 
  seq: 6449
  stamp: 
    secs: 1557852523
    nsecs: 341808192
  frame_id: "base_link"
status: 
  status: 0
  service: 1
latitude: 40.633918
longitude: -8.6604487
altitude: 67.277793371
position_covariance: [0.243049, 0.0, 0.0, 0.0, 0.243049, 0.0, 0.0, 0.0, 0.6304360000000001]
position_covariance_type: 2
---
header: 
  seq: 6450
  stamp: 
    secs: 1557852523
    nsecs: 441805888
  frame_id: "base_link"
status: 
  status: 0
  service: 1
latitude: 40.6339177
longitude: -8.6604481
altitude: 67.2547940765
position_covariance: [0.243049, 0.0, 0.0, 0.0, 0.243049, 0.0, 0.0, 0.0, 0.6304360000000001]
position_covariance_type: 2
---
header: 
  seq: 6451
  stamp: 
    secs: 1557852523
    nsecs: 541805120
  frame_id: "base_link"
status: 
  status: 0
  service: 1
latitude: 40.6339174
longitude: -8.6604476
altitude: 67.2327945872
position_covariance: [0.243049, 0.0, 0.0, 0.0, 0.243049, 0.0, 0.0, 0.0, 0.6320250000000001]
position_covariance_type: 2
---
header: 
  seq: 6452
  stamp: 
    secs: 1557852523
    nsecs: 638803072
  frame_id: "base_link"
status: 
  status: 0
  service: 1
latitude: 40.6339171
longitude: -8.660447
altitude: 67.2097952927
position_covariance: [0.243049, 0.0, 0.0, 0.0, 0.243049, 0.0, 0.0, 0.0, 0.6320250000000001]
position_covariance_type: 2
---
header: 
  seq: 6453
  stamp: 
    secs: 1557852523
    nsecs: 742800768
  frame_id: "base_link"
status: 
  status: 0
  service: 1
latitude: 40.6339168
longitude: -8.6604463
altitude: 67.1827961927
position_covariance: [0.244036, 0.0, 0.0, 0.0, 0.244036, 0.0, 0.0, 0.0, 0.6336160000000001]
position_covariance_type: 2
---
header: 
  seq: 6454
  stamp: 
    secs: 1557852523
    nsecs: 842798464
  frame_id: "base_link"
status: 
  status: 0
  service: 1
latitude: 40.6339165
longitude: -8.6604456
altitude: 67.1547970928
position_covariance: [0.244036, 0.0, 0.0, 0.0, 0.244036, 0.0, 0.0, 0.0, 0.6336160000000001]
position_covariance_type: 2
---
header: 
  seq: 6455
  stamp: 
    secs: 1557852523
    nsecs: 942797184
  frame_id: "base_link"
status: 
  status: 0
  service: 1
latitude: 40.6339163
longitude: -8.6604449
altitude: 67.1267981471
position_covariance: [0.244036, 0.0, 0.0, 0.0, 0.244036, 0.0, 0.0, 0.0, 0.635209]
position_covariance_type: 2
---
header: 
  seq: 6456
  stamp: 
    secs: 1557852524
    nsecs:  43795648
  frame_id: "base_link"
status: 
  status: 0
  service: 1
latitude: 40.633916
longitude: -8.6604441
altitude: 67.1027992418
position_covariance: [0.244036, 0.0, 0.0, 0.0, 0.244036, 0.0, 0.0, 0.0, 0.635209]
position_covariance_type: 2
---
header: 
  seq: 6457
  stamp: 
    secs: 1557852524
    nsecs: 139794624
  frame_id: "base_link"
status: 
  status: 0
  service: 1
latitude: 40.6339158
longitude: -8.6604434
altitude: 67.082800296
position_covariance: [0.244036, 0.0, 0.0, 0.0, 0.244036, 0.0, 0.0, 0.0, 0.635209]
position_covariance_type: 2
---
header: 
  seq: 6458
  stamp: 
    secs: 1557852524
    nsecs: 239793600
  frame_id: "base_link"
status: 
  status: 0
  service: 1
latitude: 40.6339155
longitude: -8.6604427
altitude: 67.0598011961
position_covariance: [0.244036, 0.0, 0.0, 0.0, 0.244036, 0.0, 0.0, 0.0, 0.635209]
position_covariance_type: 2
---
header: 
  seq: 6459
  stamp: 
    secs: 1557852524
    nsecs: 339790528
  frame_id: "base_link"
status: 
  status: 0
  service: 1
latitude: 40.6339151
longitude: -8.6604421
altitude: 67.0328017474
position_covariance: [0.243049, 0.0, 0.0, 0.0, 0.243049, 0.0, 0.0, 0.0, 0.635209]
position_covariance_type: 2
---
header: 
  seq: 6460
  stamp: 
    secs: 1557852524
    nsecs: 440788992
  frame_id: "base_link"
status: 
  status: 0
  service: 1
latitude: 40.6339147
longitude: -8.6604414
altitude: 67.0058024933
position_covariance: [0.243049, 0.0, 0.0, 0.0, 0.243049, 0.0, 0.0, 0.0, 0.635209]
position_covariance_type: 2
---
header: 
  seq: 6461
  stamp: 
    secs: 1557852524
    nsecs: 540787968
  frame_id: "base_link"
status: 
  status: 0
  service: 1
latitude: 40.6339142
longitude: -8.6604409
altitude: 66.9798026957
position_covariance: [0.243049, 0.0, 0.0, 0.0, 0.243049, 0.0, 0.0, 0.0, 0.6336160000000001]
position_covariance_type: 2
---
header: 
  seq: 6462
  stamp: 
    secs: 1557852524
    nsecs: 641786176
  frame_id: "base_link"
status: 
  status: 0
  service: 1
latitude: 40.6339137
longitude: -8.6604404
altitude: 66.9538028981
position_covariance: [0.243049, 0.0, 0.0, 0.0, 0.243049, 0.0, 0.0, 0.0, 0.6336160000000001]
position_covariance_type: 2
---
header: 
  seq: 6463
  stamp: 
    secs: 1557852524
    nsecs: 741783872
  frame_id: "base_link"
status: 
  status: 0
  service: 1
latitude: 40.6339132
longitude: -8.6604401
altitude: 66.9308027112
position_covariance: [0.24009999999999998, 0.0, 0.0, 0.0, 0.24009999999999998, 0.0, 0.0, 0.0, 0.6320250000000001]
position_covariance_type: 2
---
header: 
  seq: 6464
  stamp: 
    secs: 1557852524
    nsecs: 841781824
  frame_id: "base_link"
status: 
  status: 0
  service: 1
latitude: 40.6339126
longitude: -8.66044
altitude: 66.9068019809
position_covariance: [0.24009999999999998, 0.0, 0.0, 0.0, 0.24009999999999998, 0.0, 0.0, 0.0, 0.6320250000000001]
position_covariance_type: 2
---
header: 
  seq: 6465
  stamp: 
    secs: 1557852524
    nsecs: 941780544
  frame_id: "base_link"
status: 
  status: 0
  service: 1
latitude: 40.633912
longitude: -8.66044
altitude: 66.8778010559
position_covariance: [0.237169, 0.0, 0.0, 0.0, 0.237169, 0.0, 0.0, 0.0, 0.6304360000000001]
position_covariance_type: 2
---
header: 
  seq: 6466
  stamp: 
    secs: 1557852525
    nsecs:  42779008
  frame_id: "base_link"
status: 
  status: 0
  service: 1
latitude: 40.6339114
longitude: -8.6604401
altitude: 66.8417999362
position_covariance: [0.237169, 0.0, 0.0, 0.0, 0.237169, 0.0, 0.0, 0.0, 0.6304360000000001]
position_covariance_type: 2
---
header: 
  seq: 6467
  stamp: 
    secs: 1557852525
    nsecs: 142776192
  frame_id: "base_link"
status: 
  status: 0
  service: 1
latitude: 40.6339108
longitude: -8.6604404
altitude: 66.8017984273
position_covariance: [0.235225, 0.0, 0.0, 0.0, 0.235225, 0.0, 0.0, 0.0, 0.627264]
position_covariance_type: 2
---
header: 
  seq: 6468
  stamp: 
    secs: 1557852525
    nsecs: 242775424
  frame_id: "base_link"
status: 
  status: 0
  service: 1
latitude: 40.6339101
longitude: -8.6604408
altitude: 66.7567965695
position_covariance: [0.235225, 0.0, 0.0, 0.0, 0.235225, 0.0, 0.0, 0.0, 0.627264]
position_covariance_type: 2
---
header: 
  seq: 6469
  stamp: 
    secs: 1557852525
    nsecs: 342771072
  frame_id: "base_link"
status: 
  status: 0
  service: 1
latitude: 40.6339094
longitude: -8.6604412
altitude: 66.7097947117
position_covariance: [0.23136099999999998, 0.0, 0.0, 0.0, 0.23136099999999998, 0.0, 0.0, 0.0, 0.6241000000000001]
position_covariance_type: 2
---
header: 
  seq: 6470
  stamp: 
    secs: 1557852525
    nsecs: 439768768
  frame_id: "base_link"
status: 
  status: 0
  service: 1
latitude: 40.6339087
longitude: -8.6604416
altitude: 66.6637928539
position_covariance: [0.23136099999999998, 0.0, 0.0, 0.0, 0.23136099999999998, 0.0, 0.0, 0.0, 0.6241000000000001]
position_covariance_type: 2
---
header: 
  seq: 6471
  stamp: 
    secs: 1557852525
    nsecs: 539767744
  frame_id: "base_link"
status: 
  status: 0
  service: 1
latitude: 40.6339079
longitude: -8.6604421
altitude: 66.6177906473
position_covariance: [0.22944099999999998, 0.0, 0.0, 0.0, 0.22944099999999998, 0.0, 0.0, 0.0, 0.620944]
position_covariance_type: 2
---
header: 
  seq: 6472
  stamp: 
    secs: 1557852525
    nsecs: 639766208
  frame_id: "base_link"
status: 
  status: 0
  service: 1
latitude: 40.6339071
longitude: -8.6604425
altitude: 66.5717886353
position_covariance: [0.22944099999999998, 0.0, 0.0, 0.0, 0.22944099999999998, 0.0, 0.0, 0.0, 0.620944]
position_covariance_type: 2
---
header: 
  seq: 6473
  stamp: 
    secs: 1557852525
    nsecs: 739765184
  frame_id: "base_link"
status: 
  status: 0
  service: 1
latitude: 40.6339062
longitude: -8.660443
altitude: 66.5277862746
position_covariance: [0.22752899999999998, 0.0, 0.0, 0.0, 0.22752899999999998, 0.0, 0.0, 0.0, 0.6193690000000001]
position_covariance_type: 2
---
header: 
  seq: 6474
  stamp: 
    secs: 1557852525
    nsecs: 839764160
  frame_id: "base_link"
status: 
  status: 0
  service: 1
latitude: 40.6339052
longitude: -8.6604433
altitude: 66.4827841489
position_covariance: [0.22752899999999998, 0.0, 0.0, 0.0, 0.22752899999999998, 0.0, 0.0, 0.0, 0.6193690000000001]
position_covariance_type: 2
---
header: 
  seq: 6475
  stamp: 
    secs: 1557852525
    nsecs: 940760832
  frame_id: "base_link"
status: 
  status: 0
  service: 1
latitude: 40.6339042
longitude: -8.6604437
altitude: 66.4367818286
position_covariance: [0.225625, 0.0, 0.0, 0.0, 0.225625, 0.0, 0.0, 0.0, 0.617796]
position_covariance_type: 2
---
header: 
  seq: 6476
  stamp: 
    secs: 1557852526
    nsecs:  43758272
  frame_id: "base_link"
status: 
  status: 0
  service: 1
latitude: 40.6339031
longitude: -8.660444
altitude: 66.3887795488
position_covariance: [0.225625, 0.0, 0.0, 0.0, 0.225625, 0.0, 0.0, 0.0, 0.617796]
position_covariance_type: 2
---
header: 
  seq: 6477
  stamp: 
    secs: 1557852526
    nsecs: 144754944
  frame_id: "base_link"
status: 
  status: 0
  service: 1
latitude: 40.6339021
longitude: -8.6604442
altitude: 66.3407776178
position_covariance: [0.22372899999999998, 0.0, 0.0, 0.0, 0.22372899999999998, 0.0, 0.0, 0.0, 0.616225]
position_covariance_type: 2
---
header: 
  seq: 6478
  stamp: 
    secs: 1557852526
    nsecs: 241752640
  frame_id: "base_link"
status: 
  status: 0
  service: 1
latitude: 40.6339009
longitude: -8.6604443
altitude: 66.2947755732
position_covariance: [0.22372899999999998, 0.0, 0.0, 0.0, 0.22372899999999998, 0.0, 0.0, 0.0, 0.616225]
position_covariance_type: 2
---
header: 
  seq: 6479
  stamp: 
    secs: 1557852526
    nsecs: 341751104
  frame_id: "base_link"
status: 
  status: 0
  service: 1
latitude: 40.6338998
longitude: -8.6604445
altitude: 66.249773488
position_covariance: [0.22278399999999998, 0.0, 0.0, 0.0, 0.22278399999999998, 0.0, 0.0, 0.0, 0.617796]
position_covariance_type: 2
---
header: 
  seq: 6480
  stamp: 
    secs: 1557852526
    nsecs: 441749824
  frame_id: "base_link"
status: 
  status: 0
  service: 1
latitude: 40.6338986
longitude: -8.6604446
altitude: 66.2027714433
position_covariance: [0.22278399999999998, 0.0, 0.0, 0.0, 0.22278399999999998, 0.0, 0.0, 0.0, 0.617796]
position_covariance_type: 2
---
header: 
  seq: 6481
  stamp: 
    secs: 1557852526
    nsecs: 538747264
  frame_id: "base_link"
status: 
  status: 0
  service: 1
latitude: 40.6338973
longitude: -8.6604447
altitude: 66.1567692445
position_covariance: [0.22278399999999998, 0.0, 0.0, 0.0, 0.22278399999999998, 0.0, 0.0, 0.0, 0.616225]
position_covariance_type: 2
---
header: 
  seq: 6482
  stamp: 
    secs: 1557852526
    nsecs: 642745728
  frame_id: "base_link"
status: 
  status: 0
  service: 1
latitude: 40.633896
longitude: -8.6604447
altitude: 66.1047672403
position_covariance: [0.22278399999999998, 0.0, 0.0, 0.0, 0.22278399999999998, 0.0, 0.0, 0.0, 0.616225]
position_covariance_type: 2
---
header: 
  seq: 6483
  stamp: 
    secs: 1557852526
    nsecs: 742743936
  frame_id: "base_link"
status: 
  status: 0
  service: 1
latitude: 40.6338947
longitude: -8.6604448
altitude: 66.0527650414
position_covariance: [0.22089999999999999, 0.0, 0.0, 0.0, 0.22089999999999999, 0.0, 0.0, 0.0, 0.616225]
position_covariance_type: 2
---
header: 
  seq: 6484
  stamp: 
    secs: 1557852526
    nsecs: 842741632
  frame_id: "base_link"
status: 
  status: 0
  service: 1
latitude: 40.6338934
longitude: -8.6604447
altitude: 66.0007632319
position_covariance: [0.22089999999999999, 0.0, 0.0, 0.0, 0.22089999999999999, 0.0, 0.0, 0.0, 0.616225]
position_covariance_type: 2
---
header: 
  seq: 6485
  stamp: 
    secs: 1557852526
    nsecs: 943739840
  frame_id: "base_link"
status: 
  status: 0
  service: 1
latitude: 40.633892
longitude: -8.6604447
altitude: 65.9537610735
position_covariance: [0.21996099999999996, 0.0, 0.0, 0.0, 0.21996099999999996, 0.0, 0.0, 0.0, 0.616225]
position_covariance_type: 2
---
header: 
  seq: 6486
  stamp: 
    secs: 1557852527
    nsecs:  39738304
  frame_id: "base_link"
status: 
  status: 0
  service: 1
latitude: 40.6338907
longitude: -8.6604446
altitude: 65.904759264
position_covariance: [0.21996099999999996, 0.0, 0.0, 0.0, 0.21996099999999996, 0.0, 0.0, 0.0, 0.616225]
position_covariance_type: 2
---
header: 
  seq: 6487
  stamp: 
    secs: 1557852527
    nsecs: 143735744
  frame_id: "base_link"
status: 
  status: 0
  service: 1
latitude: 40.6338892
longitude: -8.6604444
altitude: 65.8557573408
position_covariance: [0.21902400000000002, 0.0, 0.0, 0.0, 0.21902400000000002, 0.0, 0.0, 0.0, 0.616225]
position_covariance_type: 2
---
header: 
  seq: 6488
  stamp: 
    secs: 1557852527
    nsecs: 243733696
  frame_id: "base_link"
status: 
  status: 0
  service: 1
latitude: 40.6338878
longitude: -8.6604443
altitude: 65.8087553771
position_covariance: [0.21902400000000002, 0.0, 0.0, 0.0, 0.21902400000000002, 0.0, 0.0, 0.0, 0.616225]
position_covariance_type: 2
---
header: 
  seq: 6489
  stamp: 
    secs: 1557852527
    nsecs: 343731392
  frame_id: "base_link"
status: 
  status: 0
  service: 1
latitude: 40.6338864
longitude: -8.6604441
altitude: 65.764753608
position_covariance: [0.21808900000000003, 0.0, 0.0, 0.0, 0.21808900000000003, 0.0, 0.0, 0.0, 0.616225]
position_covariance_type: 2
---
header: 
  seq: 6490
  stamp: 
    secs: 1557852527
    nsecs: 444729344
  frame_id: "base_link"
status: 
  status: 0
  service: 1
latitude: 40.633885
longitude: -8.660444
altitude: 65.7207516443
position_covariance: [0.21808900000000003, 0.0, 0.0, 0.0, 0.21808900000000003, 0.0, 0.0, 0.0, 0.616225]
position_covariance_type: 2
---
header: 
  seq: 6491
  stamp: 
    secs: 1557852527
    nsecs: 544728064
  frame_id: "base_link"
status: 
  status: 0
  service: 1
latitude: 40.6338836
longitude: -8.6604438
altitude: 65.6747498752
position_covariance: [0.21622500000000003, 0.0, 0.0, 0.0, 0.21622500000000003, 0.0, 0.0, 0.0, 0.6146560000000001]
position_covariance_type: 2
---
header: 
  seq: 6492
  stamp: 
    secs: 1557852527
    nsecs: 643724992
  frame_id: "base_link"
status: 
  status: 0
  service: 1
latitude: 40.6338822
longitude: -8.6604436
altitude: 65.6247481062
position_covariance: [0.21622500000000003, 0.0, 0.0, 0.0, 0.21622500000000003, 0.0, 0.0, 0.0, 0.6146560000000001]
position_covariance_type: 2
---
header: 
  seq: 6493
  stamp: 
    secs: 1557852527
    nsecs: 741721408
  frame_id: "base_link"
status: 
  status: 0
  service: 1
latitude: 40.633881
longitude: -8.6604434
altitude: 65.5767466455
position_covariance: [0.21529600000000002, 0.0, 0.0, 0.0, 0.21529600000000002, 0.0, 0.0, 0.0, 0.6146560000000001]
position_covariance_type: 2
---
header: 
  seq: 6494
  stamp: 
    secs: 1557852527
    nsecs: 841720384
  frame_id: "base_link"
status: 
  status: 0
  service: 1
latitude: 40.6338797
longitude: -8.6604432
altitude: 65.5257450306
position_covariance: [0.21529600000000002, 0.0, 0.0, 0.0, 0.21529600000000002, 0.0, 0.0, 0.0, 0.6146560000000001]
position_covariance_type: 2
---
header: 
  seq: 6495
  stamp: 
    secs: 1557852527
    nsecs: 941719616
  frame_id: "base_link"
status: 
  status: 0
  service: 1
latitude: 40.6338785
longitude: -8.660443
altitude: 65.4757435698
position_covariance: [0.21622500000000003, 0.0, 0.0, 0.0, 0.21622500000000003, 0.0, 0.0, 0.0, 0.6146560000000001]
position_covariance_type: 2
---
header: 
  seq: 6496
  stamp: 
    secs: 1557852528
    nsecs:  42717312
  frame_id: "base_link"
status: 
  status: 0
  service: 1
latitude: 40.6338774
longitude: -8.6604427
altitude: 65.4247424579
position_covariance: [0.21622500000000003, 0.0, 0.0, 0.0, 0.21622500000000003, 0.0, 0.0, 0.0, 0.6146560000000001]
position_covariance_type: 2
---
header: 
  seq: 6497
  stamp: 
    secs: 1557852528
    nsecs: 142715008
  frame_id: "base_link"
status: 
  status: 0
  service: 1
latitude: 40.6338763
longitude: -8.6604424
altitude: 65.369741346
position_covariance: [0.21622500000000003, 0.0, 0.0, 0.0, 0.21622500000000003, 0.0, 0.0, 0.0, 0.616225]
position_covariance_type: 2
---
header: 
  seq: 6498
  stamp: 
    secs: 1557852528
    nsecs: 242713984
  frame_id: "base_link"
status: 
  status: 0
  service: 1
latitude: 40.6338752
longitude: -8.6604421
altitude: 65.3117402341
position_covariance: [0.21622500000000003, 0.0, 0.0, 0.0, 0.21622500000000003, 0.0, 0.0, 0.0, 0.616225]
position_covariance_type: 2
---
header: 
  seq: 6499
  stamp: 
    secs: 1557852528
    nsecs: 338710400
  frame_id: "base_link"
status: 
  status: 0
  service: 1
latitude: 40.6338742
longitude: -8.6604418
altitude: 65.2607392764
position_covariance: [0.21715600000000002, 0.0, 0.0, 0.0, 0.21715600000000002, 0.0, 0.0, 0.0, 0.617796]
position_covariance_type: 2
---
header: 
  seq: 6500
  stamp: 
    secs: 1557852528
    nsecs: 439708608
  frame_id: "base_link"
status: 
  status: 0
  service: 1
latitude: 40.6338733
longitude: -8.6604414
altitude: 65.2117386675
position_covariance: [0.21715600000000002, 0.0, 0.0, 0.0, 0.21715600000000002, 0.0, 0.0, 0.0, 0.617796]
position_covariance_type: 2
---
header: 
  seq: 6501
  stamp: 
    secs: 1557852528
    nsecs: 539707840
  frame_id: "base_link"
status: 
  status: 0
  service: 1
latitude: 40.6338724
longitude: -8.660441
altitude: 65.1717380586
position_covariance: [0.22184099999999998, 0.0, 0.0, 0.0, 0.22184099999999998, 0.0, 0.0, 0.0, 0.627264]
position_covariance_type: 2
---
header: 
  seq: 6502
  stamp: 
    secs: 1557852528
    nsecs: 639705280
  frame_id: "base_link"
status: 
  status: 0
  service: 1
latitude: 40.6338715
longitude: -8.6604406
altitude: 65.1387374497
position_covariance: [0.22184099999999998, 0.0, 0.0, 0.0, 0.22184099999999998, 0.0, 0.0, 0.0, 0.627264]
position_covariance_type: 2
---
header: 
  seq: 6503
  stamp: 
    secs: 1557852528
    nsecs: 739704000
  frame_id: "base_link"
status: 
  status: 0
  service: 1
latitude: 40.6338707
longitude: -8.6604401
altitude: 65.1117371896
position_covariance: [0.23136099999999998, 0.0, 0.0, 0.0, 0.23136099999999998, 0.0, 0.0, 0.0, 0.6416010000000001]
position_covariance_type: 2
---
header: 
  seq: 6504
  stamp: 
    secs: 1557852528
    nsecs: 843702720
  frame_id: "base_link"
status: 
  status: 0
  service: 1
latitude: 40.6338699
longitude: -8.6604397
altitude: 65.0897367348
position_covariance: [0.23136099999999998, 0.0, 0.0, 0.0, 0.23136099999999998, 0.0, 0.0, 0.0, 0.6416010000000001]
position_covariance_type: 2
---
header: 
  seq: 6505
  stamp: 
    secs: 1557852528
    nsecs: 943699904
  frame_id: "base_link"
status: 
  status: 0
  service: 1
latitude: 40.6338693
longitude: -8.6604392
altitude: 65.0717367831
position_covariance: [0.244036, 0.0, 0.0, 0.0, 0.244036, 0.0, 0.0, 0.0, 0.6561000000000001]
position_covariance_type: 2
---
header: 
  seq: 6506
  stamp: 
    secs: 1557852529
    nsecs:  44697600
  frame_id: "base_link"
status: 
  status: 0
  service: 1
latitude: 40.6338686
longitude: -8.6604387
altitude: 65.0577366772
position_covariance: [0.244036, 0.0, 0.0, 0.0, 0.244036, 0.0, 0.0, 0.0, 0.6561000000000001]
position_covariance_type: 2
---
header: 
  seq: 6507
  stamp: 
    secs: 1557852529
    nsecs: 144695040
  frame_id: "base_link"
status: 
  status: 0
  service: 1
latitude: 40.6338681
longitude: -8.6604382
altitude: 65.0437368796
position_covariance: [0.254016, 0.0, 0.0, 0.0, 0.254016, 0.0, 0.0, 0.0, 0.6707609999999999]
position_covariance_type: 2
---
header: 
  seq: 6508
  stamp: 
    secs: 1557852529
    nsecs: 241694016
  frame_id: "base_link"
status: 
  status: 0
  service: 1
latitude: 40.6338676
longitude: -8.6604377
altitude: 65.028737082
position_covariance: [0.254016, 0.0, 0.0, 0.0, 0.254016, 0.0, 0.0, 0.0, 0.6707609999999999]
position_covariance_type: 2
---
header: 
  seq: 6509
  stamp: 
    secs: 1557852529
    nsecs: 341693248
  frame_id: "base_link"
status: 
  status: 0
  service: 1
latitude: 40.6338671
longitude: -8.6604372
altitude: 65.0117372844
position_covariance: [0.262144, 0.0, 0.0, 0.0, 0.262144, 0.0, 0.0, 0.0, 0.685584]
position_covariance_type: 2
---
header: 
  seq: 6510
  stamp: 
    secs: 1557852529
    nsecs: 441690688
  frame_id: "base_link"
status: 
  status: 0
  service: 1
latitude: 40.6338666
longitude: -8.6604367
altitude: 64.9887374869
position_covariance: [0.262144, 0.0, 0.0, 0.0, 0.262144, 0.0, 0.0, 0.0, 0.685584]
position_covariance_type: 2
---
header: 
  seq: 6511
  stamp: 
    secs: 1557852529
    nsecs: 542688384
  frame_id: "base_link"
status: 
  status: 0
  service: 1
latitude: 40.6338663
longitude: -8.6604361
altitude: 64.9667381923
position_covariance: [0.27040000000000003, 0.0, 0.0, 0.0, 0.27040000000000003, 0.0, 0.0, 0.0, 0.698896]
position_covariance_type: 2
---
header: 
  seq: 6512
  stamp: 
    secs: 1557852529
    nsecs: 642686080
  frame_id: "base_link"
status: 
  status: 0
  service: 1
latitude: 40.6338659
longitude: -8.6604356
altitude: 64.9457385489
position_covariance: [0.27040000000000003, 0.0, 0.0, 0.0, 0.27040000000000003, 0.0, 0.0, 0.0, 0.698896]
position_covariance_type: 2
---
header: 
  seq: 6513
  stamp: 
    secs: 1557852529
    nsecs: 742684544
  frame_id: "base_link"
status: 
  status: 0
  service: 1
latitude: 40.6338656
longitude: -8.6604349
altitude: 64.9257394489
position_covariance: [0.27878400000000003, 0.0, 0.0, 0.0, 0.27878400000000003, 0.0, 0.0, 0.0, 0.7140249999999999]
position_covariance_type: 2
---
header: 
  seq: 6514
  stamp: 
    secs: 1557852529
    nsecs: 842681984
  frame_id: "base_link"
status: 
  status: 0
  service: 1
latitude: 40.6338653
longitude: -8.6604343
altitude: 64.9077401543
position_covariance: [0.27878400000000003, 0.0, 0.0, 0.0, 0.27878400000000003, 0.0, 0.0, 0.0, 0.7140249999999999]
position_covariance_type: 2
---
header: 
  seq: 6515
  stamp: 
    secs: 1557852529
    nsecs: 939681216
  frame_id: "base_link"
status: 
  status: 0
  service: 1
latitude: 40.633865
longitude: -8.6604336
altitude: 64.8957410544
position_covariance: [0.286225, 0.0, 0.0, 0.0, 0.286225, 0.0, 0.0, 0.0, 0.729316]
position_covariance_type: 2
---
header: 
  seq: 6516
  stamp: 
    secs: 1557852530
    nsecs:  43680448
  frame_id: "base_link"
status: 
  status: 0
  service: 1
latitude: 40.6338648
longitude: -8.6604329
altitude: 64.8837421086
position_covariance: [0.286225, 0.0, 0.0, 0.0, 0.286225, 0.0, 0.0, 0.0, 0.729316]
position_covariance_type: 2
---
header: 
  seq: 6517
  stamp: 
    secs: 1557852530
    nsecs: 139678400
  frame_id: "base_link"
status: 
  status: 0
  service: 1
latitude: 40.6338646
longitude: -8.6604322
altitude: 64.8787431629
position_covariance: [0.294849, 0.0, 0.0, 0.0, 0.294849, 0.0, 0.0, 0.0, 0.7430439999999999]
position_covariance_type: 2
---
header: 
  seq: 6518
  stamp: 
    secs: 1557852530
    nsecs: 239677376
  frame_id: "base_link"
status: 
  status: 0
  service: 1
latitude: 40.6338644
longitude: -8.6604315
altitude: 64.8807442171
position_covariance: [0.294849, 0.0, 0.0, 0.0, 0.294849, 0.0, 0.0, 0.0, 0.7430439999999999]
position_covariance_type: 2
---
header: 
  seq: 6519
  stamp: 
    secs: 1557852530
    nsecs: 344673280
  frame_id: "base_link"
status: 
  status: 0
  service: 1
latitude: 40.6338642
longitude: -8.6604307
altitude: 64.899745466
position_covariance: [0.30250000000000005, 0.0, 0.0, 0.0, 0.30250000000000005, 0.0, 0.0, 0.0, 0.760384]
position_covariance_type: 2
---
header: 
  seq: 6520
  stamp: 
    secs: 1557852530
    nsecs: 444671232
  frame_id: "base_link"
status: 
  status: 0
  service: 1
latitude: 40.6338641
longitude: -8.6604299
altitude: 64.929746869
position_covariance: [0.30250000000000005, 0.0, 0.0, 0.0, 0.30250000000000005, 0.0, 0.0, 0.0, 0.760384]
position_covariance_type: 2
---
header: 
  seq: 6521
  stamp: 
    secs: 1557852530
    nsecs: 544668416
  frame_id: "base_link"
status: 
  status: 0
  service: 1
latitude: 40.6338639
longitude: -8.6604291
altitude: 64.9657481179
position_covariance: [0.31024900000000005, 0.0, 0.0, 0.0, 0.31024900000000005, 0.0, 0.0, 0.0, 0.7744]
position_covariance_type: 2
---
header: 
  seq: 6522
  stamp: 
    secs: 1557852530
    nsecs: 640666624
  frame_id: "base_link"
status: 
  status: 0
  service: 1
latitude: 40.6338638
longitude: -8.6604283
altitude: 64.999749521
position_covariance: [0.31024900000000005, 0.0, 0.0, 0.0, 0.31024900000000005, 0.0, 0.0, 0.0, 0.7744]
position_covariance_type: 2
---
header: 
  seq: 6523
  stamp: 
    secs: 1557852530
    nsecs: 741664576
  frame_id: "base_link"
status: 
  status: 0
  service: 1
latitude: 40.6338637
longitude: -8.6604275
altitude: 65.036750924
position_covariance: [0.31584400000000007, 0.0, 0.0, 0.0, 0.31584400000000007, 0.0, 0.0, 0.0, 0.788544]
position_covariance_type: 2
---
header: 
  seq: 6524
  stamp: 
    secs: 1557852530
    nsecs: 841662528
  frame_id: "base_link"
status: 
  status: 0
  service: 1
latitude: 40.6338636
longitude: -8.6604266
altitude: 65.0667525217
position_covariance: [0.31584400000000007, 0.0, 0.0, 0.0, 0.31584400000000007, 0.0, 0.0, 0.0, 0.788544]
position_covariance_type: 2
---
header: 
  seq: 6525
  stamp: 
    secs: 1557852530
    nsecs: 941660224
  frame_id: "base_link"
status: 
  status: 0
  service: 1
latitude: 40.6338635
longitude: -8.6604257
altitude: 65.0807541194
position_covariance: [0.3203559999999999, 0.0, 0.0, 0.0, 0.3203559999999999, 0.0, 0.0, 0.0, 0.801025]
position_covariance_type: 2
---
header: 
  seq: 6526
  stamp: 
    secs: 1557852531
    nsecs:  38658944
  frame_id: "base_link"
status: 
  status: 0
  service: 1
latitude: 40.6338634
longitude: -8.6604248
altitude: 65.0847557171
position_covariance: [0.3203559999999999, 0.0, 0.0, 0.0, 0.3203559999999999, 0.0, 0.0, 0.0, 0.801025]
position_covariance_type: 2
---
header: 
  seq: 6527
  stamp: 
    secs: 1557852531
    nsecs: 142656128
  frame_id: "base_link"
status: 
  status: 0
  service: 1
latitude: 40.6338633
longitude: -8.6604239
altitude: 65.0847573148
position_covariance: [0.32489999999999997, 0.0, 0.0, 0.0, 0.32489999999999997, 0.0, 0.0, 0.0, 0.81]
position_covariance_type: 2
---
header: 
  seq: 6528
  stamp: 
    secs: 1557852531
    nsecs: 238653824
  frame_id: "base_link"
status: 
  status: 0
  service: 1
latitude: 40.6338633
longitude: -8.6604232
altitude: 65.0827586774
position_covariance: [0.32489999999999997, 0.0, 0.0, 0.0, 0.32489999999999997, 0.0, 0.0, 0.0, 0.81]
position_covariance_type: 2
---
header: 
  seq: 6529
  stamp: 
    secs: 1557852531
    nsecs: 342650752
  frame_id: "base_link"
status: 
  status: 0
  service: 1
latitude: 40.6338635
longitude: -8.6604225
altitude: 65.0817603483
position_covariance: [0.3271839999999999, 0.0, 0.0, 0.0, 0.3271839999999999, 0.0, 0.0, 0.0, 0.820836]
position_covariance_type: 2
---
header: 
  seq: 6530
  stamp: 
    secs: 1557852531
    nsecs: 443648192
  frame_id: "base_link"
status: 
  status: 0
  service: 1
latitude: 40.6338638
longitude: -8.660422
altitude: 65.0837617841
position_covariance: [0.3271839999999999, 0.0, 0.0, 0.0, 0.3271839999999999, 0.0, 0.0, 0.0, 0.820836]
position_covariance_type: 2
---
header: 
  seq: 6531
  stamp: 
    secs: 1557852531
    nsecs: 539645888
  frame_id: "base_link"
status: 
  status: 0
  service: 1
latitude: 40.6338642
longitude: -8.6604215
altitude: 65.090763374
position_covariance: [0.33062499999999995, 0.0, 0.0, 0.0, 0.33062499999999995, 0.0, 0.0, 0.0, 0.831744]
position_covariance_type: 2
---
header: 
  seq: 6532
  stamp: 
    secs: 1557852531
    nsecs: 643643840
  frame_id: "base_link"
status: 
  status: 0
  service: 1
latitude: 40.6338648
longitude: -8.6604211
altitude: 65.1197650776
position_covariance: [0.33062499999999995, 0.0, 0.0, 0.0, 0.33062499999999995, 0.0, 0.0, 0.0, 0.831744]
position_covariance_type: 2
---
header: 
  seq: 6533
  stamp: 
    secs: 1557852531
    nsecs: 739641792
  frame_id: "base_link"
status: 
  status: 0
  service: 1
latitude: 40.6338653
longitude: -8.6604208
altitude: 65.1657664324
position_covariance: [0.33408399999999994, 0.0, 0.0, 0.0, 0.33408399999999994, 0.0, 0.0, 0.0, 0.839056]
position_covariance_type: 2
---
header: 
  seq: 6534
  stamp: 
    secs: 1557852531
    nsecs: 843638208
  frame_id: "base_link"
status: 
  status: 0
  service: 1
latitude: 40.6338658
longitude: -8.6604203
altitude: 65.2277681765
position_covariance: [0.33408399999999994, 0.0, 0.0, 0.0, 0.33408399999999994, 0.0, 0.0, 0.0, 0.839056]
position_covariance_type: 2
---
header: 
  seq: 6535
  stamp: 
    secs: 1557852531
    nsecs: 944636416
  frame_id: "base_link"
status: 
  status: 0
  service: 1
latitude: 40.6338663
longitude: -8.6604198
altitude: 65.2927699207
position_covariance: [0.33524099999999996, 0.0, 0.0, 0.0, 0.33524099999999996, 0.0, 0.0, 0.0, 0.842724]
position_covariance_type: 2
---
header: 
  seq: 6536
  stamp: 
    secs: 1557852532
    nsecs:  43633344
  frame_id: "base_link"
status: 
  status: 0
  service: 1
latitude: 40.6338668
longitude: -8.6604193
altitude: 65.3587716648
position_covariance: [0.33524099999999996, 0.0, 0.0, 0.0, 0.33524099999999996, 0.0, 0.0, 0.0, 0.842724]
position_covariance_type: 2
---
header: 
  seq: 6537
  stamp: 
    secs: 1557852532
    nsecs: 143632064
  frame_id: "base_link"
status: 
  status: 0
  service: 1
latitude: 40.6338673
longitude: -8.6604188
altitude: 65.4217734089
position_covariance: [0.33524099999999996, 0.0, 0.0, 0.0, 0.33524099999999996, 0.0, 0.0, 0.0, 0.8464]
position_covariance_type: 2
---
header: 
  seq: 6538
  stamp: 
    secs: 1557852532
    nsecs: 240631040
  frame_id: "base_link"
status: 
  status: 0
  service: 1
latitude: 40.6338677
longitude: -8.6604182
altitude: 65.4647751934
position_covariance: [0.33524099999999996, 0.0, 0.0, 0.0, 0.33524099999999996, 0.0, 0.0, 0.0, 0.8464]
position_covariance_type: 2
---
header: 
  seq: 6539
  stamp: 
    secs: 1557852532
    nsecs: 340629248
  frame_id: "base_link"
status: 
  status: 0
  service: 1
latitude: 40.6338682
longitude: -8.6604176
altitude: 65.4917771322
position_covariance: [0.33756099999999994, 0.0, 0.0, 0.0, 0.33756099999999994, 0.0, 0.0, 0.0, 0.8537760000000001]
position_covariance_type: 2
---
header: 
  seq: 6540
  stamp: 
    secs: 1557852532
    nsecs: 440626432
  frame_id: "base_link"
status: 
  status: 0
  service: 1
latitude: 40.6338687
longitude: -8.6604169
altitude: 65.5107792656
position_covariance: [0.33756099999999994, 0.0, 0.0, 0.0, 0.33756099999999994, 0.0, 0.0, 0.0, 0.8537760000000001]
position_covariance_type: 2
---
header: 
  seq: 6541
  stamp: 
    secs: 1557852532
    nsecs: 540626944
  frame_id: "base_link"
status: 
  status: 0
  service: 1
latitude: 40.6338693
longitude: -8.6604163
altitude: 65.5287813585
position_covariance: [0.33988899999999994, 0.0, 0.0, 0.0, 0.33988899999999994, 0.0, 0.0, 0.0, 0.8593290000000001]
position_covariance_type: 2
---
header: 
  seq: 6542
  stamp: 
    secs: 1557852532
    nsecs: 641624640
  frame_id: "base_link"
status: 
  status: 0
  service: 1
latitude: 40.6338698
longitude: -8.6604157
altitude: 65.5497832973
position_covariance: [0.33988899999999994, 0.0, 0.0, 0.0, 0.33988899999999994, 0.0, 0.0, 0.0, 0.8593290000000001]
position_covariance_type: 2
---
header: 
  seq: 6543
  stamp: 
    secs: 1557852532
    nsecs: 741623104
  frame_id: "base_link"
status: 
  status: 0
  service: 1
latitude: 40.6338704
longitude: -8.6604151
altitude: 65.5697853902
position_covariance: [0.343396, 0.0, 0.0, 0.0, 0.343396, 0.0, 0.0, 0.0, 0.8667610000000001]
position_covariance_type: 2
---
header: 
  seq: 6544
  stamp: 
    secs: 1557852532
    nsecs: 841621056
  frame_id: "base_link"
status: 
  status: 0
  service: 1
latitude: 40.633871
longitude: -8.6604146
altitude: 65.5887872885
position_covariance: [0.343396, 0.0, 0.0, 0.0, 0.343396, 0.0, 0.0, 0.0, 0.8667610000000001]
position_covariance_type: 2
---
header: 
  seq: 6545
  stamp: 
    secs: 1557852532
    nsecs: 941620800
  frame_id: "base_link"
status: 
  status: 0
  service: 1
latitude: 40.6338716
longitude: -8.6604142
altitude: 65.6057889921
position_covariance: [0.346921, 0.0, 0.0, 0.0, 0.346921, 0.0, 0.0, 0.0, 0.8760960000000001]
position_covariance_type: 2
---
header: 
  seq: 6546
  stamp: 
    secs: 1557852533
    nsecs:  42619008
  frame_id: "base_link"
status: 
  status: 0
  service: 1
latitude: 40.6338723
longitude: -8.6604139
altitude: 65.6217906552
position_covariance: [0.346921, 0.0, 0.0, 0.0, 0.346921, 0.0, 0.0, 0.0, 0.8760960000000001]
position_covariance_type: 2
---
header: 
  seq: 6547
  stamp: 
    secs: 1557852533
    nsecs: 142616960
  frame_id: "base_link"
status: 
  status: 0
  service: 1
latitude: 40.633873
longitude: -8.6604137
altitude: 65.6347921237
position_covariance: [0.35046399999999994, 0.0, 0.0, 0.0, 0.35046399999999994, 0.0, 0.0, 0.0, 0.8817209999999999]
position_covariance_type: 2
---
header: 
  seq: 6548
  stamp: 
    secs: 1557852533
    nsecs: 238614912
  frame_id: "base_link"
status: 
  status: 0
  service: 1
latitude: 40.6338738
longitude: -8.6604136
altitude: 65.6477935517
position_covariance: [0.35046399999999994, 0.0, 0.0, 0.0, 0.35046399999999994, 0.0, 0.0, 0.0, 0.8817209999999999]
position_covariance_type: 2
---
header: 
  seq: 6549
  stamp: 
    secs: 1557852533
    nsecs: 342612608
  frame_id: "base_link"
status: 
  status: 0
  service: 1
latitude: 40.6338748
longitude: -8.6604136
altitude: 65.6627950934
position_covariance: [0.355216, 0.0, 0.0, 0.0, 0.355216, 0.0, 0.0, 0.0, 0.889249]
position_covariance_type: 2
---
header: 
  seq: 6550
  stamp: 
    secs: 1557852533
    nsecs: 439610304
  frame_id: "base_link"
status: 
  status: 0
  service: 1
latitude: 40.6338758
longitude: -8.6604138
altitude: 65.6797962458
position_covariance: [0.355216, 0.0, 0.0, 0.0, 0.355216, 0.0, 0.0, 0.0, 0.889249]
position_covariance_type: 2
---
header: 
  seq: 6551
  stamp: 
    secs: 1557852533
    nsecs: 543608256
  frame_id: "base_link"
status: 
  status: 0
  service: 1
latitude: 40.6338769
longitude: -8.660414
altitude: 65.7027975523
position_covariance: [0.358801, 0.0, 0.0, 0.0, 0.358801, 0.0, 0.0, 0.0, 0.8968089999999999]
position_covariance_type: 2
---
header: 
  seq: 6552
  stamp: 
    secs: 1557852533
    nsecs: 643606464
  frame_id: "base_link"
status: 
  status: 0
  service: 1
latitude: 40.6338781
longitude: -8.6604145
altitude: 65.7287984291
position_covariance: [0.358801, 0.0, 0.0, 0.0, 0.358801, 0.0, 0.0, 0.0, 0.8968089999999999]
position_covariance_type: 2
---
header: 
  seq: 6553
  stamp: 
    secs: 1557852533
    nsecs: 743604416
  frame_id: "base_link"
status: 
  status: 0
  service: 1
latitude: 40.6338794
longitude: -8.660415
altitude: 65.75379946
position_covariance: [0.361201, 0.0, 0.0, 0.0, 0.361201, 0.0, 0.0, 0.0, 0.9025]
position_covariance_type: 2
---
header: 
  seq: 6554
  stamp: 
    secs: 1557852533
    nsecs: 843601344
  frame_id: "base_link"
status: 
  status: 0
  service: 1
latitude: 40.6338807
longitude: -8.6604158
altitude: 65.778799907
position_covariance: [0.361201, 0.0, 0.0, 0.0, 0.361201, 0.0, 0.0, 0.0, 0.9025]
position_covariance_type: 2
---
header: 
  seq: 6555
  stamp: 
    secs: 1557852533
    nsecs: 944598784
  frame_id: "base_link"
status: 
  status: 0
  service: 1
latitude: 40.633882
longitude: -8.6604167
altitude: 65.8018001594
position_covariance: [0.364816, 0.0, 0.0, 0.0, 0.364816, 0.0, 0.0, 0.0, 0.9101159999999999]
position_covariance_type: 2
---
header: 
  seq: 6556
  stamp: 
    secs: 1557852534
    nsecs:  44594944
  frame_id: "base_link"
status: 
  status: 0
  service: 1
latitude: 40.6338834
longitude: -8.6604179
altitude: 65.8257999819
position_covariance: [0.364816, 0.0, 0.0, 0.0, 0.364816, 0.0, 0.0, 0.0, 0.9101159999999999]
position_covariance_type: 2
---
header: 
  seq: 6557
  stamp: 
    secs: 1557852534
    nsecs: 140592640
  frame_id: "base_link"
status: 
  status: 0
  service: 1
latitude: 40.6338848
longitude: -8.6604191
altitude: 65.8487998045
position_covariance: [0.367236, 0.0, 0.0, 0.0, 0.367236, 0.0, 0.0, 0.0, 0.9158489999999999]
position_covariance_type: 2
---
header: 
  seq: 6558
  stamp: 
    secs: 1557852534
    nsecs: 241590336
  frame_id: "base_link"
status: 
  status: 0
  service: 1
latitude: 40.6338863
longitude: -8.6604205
altitude: 65.8717993919
position_covariance: [0.367236, 0.0, 0.0, 0.0, 0.367236, 0.0, 0.0, 0.0, 0.9158489999999999]
position_covariance_type: 2
---
header: 
  seq: 6559
  stamp: 
    secs: 1557852534
    nsecs: 341585216
  frame_id: "base_link"
status: 
  status: 0
  service: 1
latitude: 40.6338879
longitude: -8.660422
altitude: 65.8927989388
position_covariance: [0.369664, 0.0, 0.0, 0.0, 0.369664, 0.0, 0.0, 0.0, 0.9216]
position_covariance_type: 2
---
header: 
  seq: 6560
  stamp: 
    secs: 1557852534
    nsecs: 441584192
  frame_id: "base_link"
status: 
  status: 0
  service: 1
latitude: 40.6338895
longitude: -8.6604237
altitude: 65.9147980964
position_covariance: [0.369664, 0.0, 0.0, 0.0, 0.369664, 0.0, 0.0, 0.0, 0.9216]
position_covariance_type: 2
---
header: 
  seq: 6561
  stamp: 
    secs: 1557852534
    nsecs: 542582144
  frame_id: "base_link"
status: 
  status: 0
  service: 1
latitude: 40.6338912
longitude: -8.6604255
altitude: 65.9387972136
position_covariance: [0.3721, 0.0, 0.0, 0.0, 0.3721, 0.0, 0.0, 0.0, 0.9273689999999999]
position_covariance_type: 2
---
header: 
  seq: 6562
  stamp: 
    secs: 1557852534
    nsecs: 642580352
  frame_id: "base_link"
status: 
  status: 0
  service: 1
latitude: 40.6338929
longitude: -8.6604276
altitude: 65.9587957467
position_covariance: [0.3721, 0.0, 0.0, 0.0, 0.3721, 0.0, 0.0, 0.0, 0.9273689999999999]
position_covariance_type: 2
---
header: 
  seq: 6563
  stamp: 
    secs: 1557852534
    nsecs: 742577792
  frame_id: "base_link"
status: 
  status: 0
  service: 1
latitude: 40.6338947
longitude: -8.6604298
altitude: 65.9797942394
position_covariance: [0.374544, 0.0, 0.0, 0.0, 0.374544, 0.0, 0.0, 0.0, 0.933156]
position_covariance_type: 2
---
header: 
  seq: 6564
  stamp: 
    secs: 1557852534
    nsecs: 838576768
  frame_id: "base_link"
status: 
  status: 0
  service: 1
latitude: 40.6338964
longitude: -8.6604321
altitude: 66.0007923833
position_covariance: [0.374544, 0.0, 0.0, 0.0, 0.374544, 0.0, 0.0, 0.0, 0.933156]
position_covariance_type: 2
---
header: 
  seq: 6565
  stamp: 
    secs: 1557852534
    nsecs: 939575744
  frame_id: "base_link"
status: 
  status: 0
  service: 1
latitude: 40.6338982
longitude: -8.6604348
altitude: 66.0237899027
position_covariance: [0.376996, 0.0, 0.0, 0.0, 0.376996, 0.0, 0.0, 0.0, 0.937024]
position_covariance_type: 2
---
header: 
  seq: 6566
  stamp: 
    secs: 1557852535
    nsecs:  39574976
  frame_id: "base_link"
status: 
  status: 0
  service: 1
latitude: 40.6339
longitude: -8.6604378
altitude: 66.0467868381
position_covariance: [0.376996, 0.0, 0.0, 0.0, 0.376996, 0.0, 0.0, 0.0, 0.937024]
position_covariance_type: 2
---
header: 
  seq: 6567
  stamp: 
    secs: 1557852535
    nsecs: 139572928
  frame_id: "base_link"
status: 
  status: 0
  service: 1
latitude: 40.6339017
longitude: -8.6604409
altitude: 66.0727834247
position_covariance: [0.379456, 0.0, 0.0, 0.0, 0.379456, 0.0, 0.0, 0.0, 0.9389609999999999]
position_covariance_type: 2
---
header: 
  seq: 6568
  stamp: 
    secs: 1557852535
    nsecs: 239572160
  frame_id: "base_link"
status: 
  status: 0
  service: 1
latitude: 40.6339034
longitude: -8.6604444
altitude: 66.0957792327
position_covariance: [0.379456, 0.0, 0.0, 0.0, 0.379456, 0.0, 0.0, 0.0, 0.9389609999999999]
position_covariance_type: 2
---
header: 
  seq: 6569
  stamp: 
    secs: 1557852535
    nsecs: 340570880
  frame_id: "base_link"
status: 
  status: 0
  service: 1
latitude: 40.6339051
longitude: -8.6604482
altitude: 66.1217744567
position_covariance: [0.381924, 0.0, 0.0, 0.0, 0.381924, 0.0, 0.0, 0.0, 0.9428409999999999]
position_covariance_type: 2
---
header: 
  seq: 6570
  stamp: 
    secs: 1557852535
    nsecs: 444566784
  frame_id: "base_link"
status: 
  status: 0
  service: 1
latitude: 40.6339067
longitude: -8.6604523
altitude: 66.1457689425
position_covariance: [0.381924, 0.0, 0.0, 0.0, 0.381924, 0.0, 0.0, 0.0, 0.9428409999999999]
position_covariance_type: 2
---
header: 
  seq: 6571
  stamp: 
    secs: 1557852535
    nsecs: 540565504
  frame_id: "base_link"
status: 
  status: 0
  service: 1
latitude: 40.633908
longitude: -8.6604563
altitude: 66.1687631605
position_covariance: [0.3844, 0.0, 0.0, 0.0, 0.3844, 0.0, 0.0, 0.0, 0.9467289999999999]
position_covariance_type: 2
---
header: 
  seq: 6572
  stamp: 
    secs: 1557852535
    nsecs: 641562432
  frame_id: "base_link"
status: 
  status: 0
  service: 1
latitude: 40.6339092
longitude: -8.6604607
altitude: 66.1927564456
position_covariance: [0.3844, 0.0, 0.0, 0.0, 0.3844, 0.0, 0.0, 0.0, 0.9467289999999999]
position_covariance_type: 2
---
header: 
  seq: 6573
  stamp: 
    secs: 1557852535
    nsecs: 741560896
  frame_id: "base_link"
status: 
  status: 0
  service: 1
latitude: 40.6339103
longitude: -8.6604653
