header: 
  seq: 5422
  stamp: 
    secs: 1557852420
    nsecs: 643257856
  frame_id: "base_link"
status: 
  status: 0
  service: 1
latitude: 40.6337523
longitude: -8.6604515
altitude: 69.647532457
position_covariance: [0.599076, 0.0, 0.0, 0.0, 0.599076, 0.0, 0.0, 0.0, 1.016064]
position_covariance_type: 2
---
header: 
  seq: 5423
  stamp: 
    secs: 1557852420
    nsecs: 743256320
  frame_id: "base_link"
status: 
  status: 0
  service: 1
latitude: 40.6337647
longitude: -8.6604516
altitude: 69.6315513803
position_covariance: [0.6099610000000001, 0.0, 0.0, 0.0, 0.6099610000000001, 0.0, 0.0, 0.0, 1.0302249999999997]
position_covariance_type: 2
---
header: 
  seq: 5424
  stamp: 
    secs: 1557852420
    nsecs: 843254528
  frame_id: "base_link"
status: 
  status: 0
  service: 1
latitude: 40.6337773
longitude: -8.6604518
altitude: 69.6275704172
position_covariance: [0.6099610000000001, 0.0, 0.0, 0.0, 0.6099610000000001, 0.0, 0.0, 0.0, 1.0302249999999997]
position_covariance_type: 2
---
header: 
  seq: 5425
  stamp: 
    secs: 1557852420
    nsecs: 944251456
  frame_id: "base_link"
status: 
  status: 0
  service: 1
latitude: 40.6337902
longitude: -8.6604521
altitude: 69.6065897219
position_covariance: [0.620944, 0.0, 0.0, 0.0, 0.620944, 0.0, 0.0, 0.0, 1.0424409999999997]
position_covariance_type: 2
---
header: 
  seq: 5426
  stamp: 
    secs: 1557852421
    nsecs:  44248384
  frame_id: "base_link"
status: 
  status: 0
  service: 1
latitude: 40.6338032
longitude: -8.6604524
altitude: 69.5846091806
position_covariance: [0.620944, 0.0, 0.0, 0.0, 0.620944, 0.0, 0.0, 0.0, 1.0424409999999997]
position_covariance_type: 2
---
header: 
  seq: 5427
  stamp: 
    secs: 1557852421
    nsecs: 144244032
  frame_id: "base_link"
status: 
  status: 0
  service: 1
latitude: 40.6338164
longitude: -8.6604527
altitude: 69.5586289476
position_covariance: [0.613089, 0.0, 0.0, 0.0, 0.613089, 0.0, 0.0, 0.0, 1.016064]
position_covariance_type: 2
---
header: 
  seq: 5428
  stamp: 
    secs: 1557852421
    nsecs: 244240704
  frame_id: "base_link"
status: 
  status: 0
  service: 1
latitude: 40.6338296
longitude: -8.6604529
altitude: 69.5366489092
position_covariance: [0.613089, 0.0, 0.0, 0.0, 0.613089, 0.0, 0.0, 0.0, 1.016064]
position_covariance_type: 2
---
header: 
  seq: 5429
  stamp: 
    secs: 1557852421
    nsecs: 345234816
  frame_id: "base_link"
status: 
  status: 0
  service: 1
latitude: 40.6338432
longitude: -8.6604531
altitude: 69.5106694873
position_covariance: [0.602176, 0.0, 0.0, 0.0, 0.602176, 0.0, 0.0, 0.0, 0.986049]
position_covariance_type: 2
---
header: 
  seq: 5430
  stamp: 
    secs: 1557852421
    nsecs: 445230208
  frame_id: "base_link"
status: 
  status: 0
  service: 1
latitude: 40.6338569
longitude: -8.6604535
altitude: 69.4916898302
position_covariance: [0.602176, 0.0, 0.0, 0.0, 0.602176, 0.0, 0.0, 0.0, 0.986049]
position_covariance_type: 2
---
header: 
  seq: 5431
  stamp: 
    secs: 1557852421
    nsecs: 545227648
  frame_id: "base_link"
status: 
  status: 0
  service: 1
latitude: 40.6338709
longitude: -8.660454
altitude: 69.4747104408
position_covariance: [0.589824, 0.0, 0.0, 0.0, 0.589824, 0.0, 0.0, 0.0, 0.9467289999999999]
position_covariance_type: 2
---
header: 
  seq: 5432
  stamp: 
    secs: 1557852421
    nsecs: 641225088
  frame_id: "base_link"
status: 
  status: 0
  service: 1
latitude: 40.6338843
longitude: -8.6604545
altitude: 69.4587301263
position_covariance: [0.589824, 0.0, 0.0, 0.0, 0.589824, 0.0, 0.0, 0.0, 0.9467289999999999]
position_covariance_type: 2
---
header: 
  seq: 5433
  stamp: 
    secs: 1557852421
    nsecs: 746222272
  frame_id: "base_link"
status: 
  status: 0
  service: 1
latitude: 40.6338992
longitude: -8.6604552
altitude: 69.4337517349
position_covariance: [0.579121, 0.0, 0.0, 0.0, 0.579121, 0.0, 0.0, 0.0, 0.9216]
position_covariance_type: 2
---
header: 
  seq: 5434
  stamp: 
    secs: 1557852421
    nsecs: 842220224
  frame_id: "base_link"
status: 
  status: 0
  service: 1
latitude: 40.6339129
longitude: -8.660456
altitude: 69.4337712987
position_covariance: [0.579121, 0.0, 0.0, 0.0, 0.579121, 0.0, 0.0, 0.0, 0.9216]
position_covariance_type: 2
---
header: 
  seq: 5435
  stamp: 
    secs: 1557852421
    nsecs: 942217920
  frame_id: "base_link"
status: 
  status: 0
  service: 1
latitude: 40.6339269
longitude: -8.6604569
altitude: 69.5127911302
position_covariance: [0.5625, 0.0, 0.0, 0.0, 0.5625, 0.0, 0.0, 0.0, 0.9044009999999999]
position_covariance_type: 2
---
header: 
  seq: 5436
  stamp: 
    secs: 1557852422
    nsecs:  43216128
  frame_id: "base_link"
status: 
  status: 0
  service: 1
latitude: 40.63394
longitude: -8.6604579
altitude: 69.6398093795
position_covariance: [0.5625, 0.0, 0.0, 0.0, 0.5625, 0.0, 0.0, 0.0, 0.9044009999999999]
position_covariance_type: 2
---
header: 
  seq: 5437
  stamp: 
    secs: 1557852422
    nsecs: 143213824
  frame_id: "base_link"
status: 
  status: 0
  service: 1
latitude: 40.6339521
longitude: -8.660459
altitude: 69.7538258924
position_covariance: [0.5112249999999999, 0.0, 0.0, 0.0, 0.5112249999999999, 0.0, 0.0, 0.0, 0.8854809999999999]
position_covariance_type: 2
---
header: 
  seq: 5438
  stamp: 
    secs: 1557852422
    nsecs: 246211776
  frame_id: "base_link"
status: 
  status: 0
  service: 1
latitude: 40.633964
longitude: -8.6604603
altitude: 69.8518417075
position_covariance: [0.5112249999999999, 0.0, 0.0, 0.0, 0.5112249999999999, 0.0, 0.0, 0.0, 0.8854809999999999]
position_covariance_type: 2
---
header: 
  seq: 5439
  stamp: 
    secs: 1557852422
    nsecs: 347209472
  frame_id: "base_link"
status: 
  status: 0
  service: 1
latitude: 40.6339749
longitude: -8.6604617
altitude: 69.9328557863
position_covariance: [0.46785600000000005, 0.0, 0.0, 0.0, 0.46785600000000005, 0.0, 0.0, 0.0, 0.8649000000000001]
position_covariance_type: 2
---
header: 
  seq: 5440
  stamp: 
    secs: 1557852422
    nsecs: 444206400
  frame_id: "base_link"
status: 
  status: 0
  service: 1
latitude: 40.6339848
longitude: -8.6604632
altitude: 69.9818681287
position_covariance: [0.46785600000000005, 0.0, 0.0, 0.0, 0.46785600000000005, 0.0, 0.0, 0.0, 0.8649000000000001]
position_covariance_type: 2
---
header: 
  seq: 5441
  stamp: 
    secs: 1557852422
    nsecs: 544204608
  frame_id: "base_link"
status: 
  status: 0
  service: 1
latitude: 40.6339944
longitude: -8.6604649
altitude: 70.0228796192
position_covariance: [0.43560000000000004, 0.0, 0.0, 0.0, 0.43560000000000004, 0.0, 0.0, 0.0, 0.8445610000000001]
position_covariance_type: 2
---
header: 
  seq: 5442
  stamp: 
    secs: 1557852422
    nsecs: 644201280
  frame_id: "base_link"
status: 
  status: 0
  service: 1
latitude: 40.6340033
longitude: -8.6604666
altitude: 70.0408900306
position_covariance: [0.43560000000000004, 0.0, 0.0, 0.0, 0.43560000000000004, 0.0, 0.0, 0.0, 0.8445610000000001]
position_covariance_type: 2
---
header: 
  seq: 5443
  stamp: 
    secs: 1557852422
    nsecs: 745197696
  frame_id: "base_link"
status: 
  status: 0
  service: 1
latitude: 40.6340117
longitude: -8.6604685
altitude: 70.0508992818
position_covariance: [0.408321, 0.0, 0.0, 0.0, 0.408321, 0.0, 0.0, 0.0, 0.8244640000000001]
position_covariance_type: 2
---
header: 
  seq: 5444
  stamp: 
    secs: 1557852422
    nsecs: 845194368
  frame_id: "base_link"
status: 
  status: 0
  service: 1
latitude: 40.6340193
longitude: -8.6604704
altitude: 70.0469072997
position_covariance: [0.408321, 0.0, 0.0, 0.0, 0.408321, 0.0, 0.0, 0.0, 0.8244640000000001]
position_covariance_type: 2
---
header: 
  seq: 5445
  stamp: 
    secs: 1557852422
    nsecs: 945191552
  frame_id: "base_link"
status: 
  status: 0
  service: 1
latitude: 40.6340263
longitude: -8.6604723
altitude: 70.0409143925
position_covariance: [0.389376, 0.0, 0.0, 0.0, 0.389376, 0.0, 0.0, 0.0, 0.806404]
position_covariance_type: 2
---
header: 
  seq: 5446
  stamp: 
    secs: 1557852423
    nsecs:  41187968
  frame_id: "base_link"
status: 
  status: 0
  service: 1
latitude: 40.6340324
longitude: -8.6604742
altitude: 70.0199200979
position_covariance: [0.389376, 0.0, 0.0, 0.0, 0.389376, 0.0, 0.0, 0.0, 0.806404]
position_covariance_type: 2
---
header: 
  seq: 5447
  stamp: 
    secs: 1557852423
    nsecs: 142186688
  frame_id: "base_link"
status: 
  status: 0
  service: 1
latitude: 40.6340382
longitude: -8.6604763
altitude: 69.9809249515
position_covariance: [0.37332099999999996, 0.0, 0.0, 0.0, 0.37332099999999996, 0.0, 0.0, 0.0, 0.790321]
position_covariance_type: 2
---
header: 
  seq: 5448
  stamp: 
    secs: 1557852423
    nsecs: 242184384
  frame_id: "base_link"
status: 
  status: 0
  service: 1
latitude: 40.6340433
longitude: -8.6604784
altitude: 69.9289287259
position_covariance: [0.37332099999999996, 0.0, 0.0, 0.0, 0.37332099999999996, 0.0, 0.0, 0.0, 0.790321]
position_covariance_type: 2
---
header: 
  seq: 5449
  stamp: 
    secs: 1557852423
    nsecs: 346182336
  frame_id: "base_link"
status: 
  status: 0
  service: 1
latitude: 40.6340479
longitude: -8.6604806
altitude: 69.8689315349
position_covariance: [0.36, 0.0, 0.0, 0.0, 0.36, 0.0, 0.0, 0.0, 0.776161]
position_covariance_type: 2
---
header: 
  seq: 5450
  stamp: 
    secs: 1557852423
    nsecs: 443180800
  frame_id: "base_link"
status: 
  status: 0
  service: 1
latitude: 40.6340516
longitude: -8.6604827
altitude: 69.8089331511
position_covariance: [0.36, 0.0, 0.0, 0.0, 0.36, 0.0, 0.0, 0.0, 0.776161]
position_covariance_type: 2
---
header: 
  seq: 5451
  stamp: 
    secs: 1557852423
    nsecs: 546178496
  frame_id: "base_link"
status: 
  status: 0
  service: 1
latitude: 40.634055
longitude: -8.6604849
altitude: 69.7359341101
position_covariance: [0.34928099999999995, 0.0, 0.0, 0.0, 0.34928099999999995, 0.0, 0.0, 0.0, 0.762129]
position_covariance_type: 2
---
header: 
  seq: 5452
  stamp: 
    secs: 1557852423
    nsecs: 647176192
  frame_id: "base_link"
status: 
  status: 0
  service: 1
latitude: 40.6340576
longitude: -8.6604871
altitude: 69.6689338358
position_covariance: [0.34928099999999995, 0.0, 0.0, 0.0, 0.34928099999999995, 0.0, 0.0, 0.0, 0.762129]
position_covariance_type: 2
---
header: 
  seq: 5453
  stamp: 
    secs: 1557852423
    nsecs: 747173888
  frame_id: "base_link"
status: 
  status: 0
  service: 1
latitude: 40.6340596
longitude: -8.6604893
altitude: 69.5869326366
position_covariance: [0.33988899999999994, 0.0, 0.0, 0.0, 0.33988899999999994, 0.0, 0.0, 0.0, 0.749956]
position_covariance_type: 2
---
header: 
  seq: 5454
  stamp: 
    secs: 1557852423
    nsecs: 843171328
  frame_id: "base_link"
status: 
  status: 0
  service: 1
latitude: 40.6340611
longitude: -8.6604914
altitude: 69.5199308612
position_covariance: [0.33988899999999994, 0.0, 0.0, 0.0, 0.33988899999999994, 0.0, 0.0, 0.0, 0.749956]
position_covariance_type: 2
---
header: 
  seq: 5455
  stamp: 
    secs: 1557852423
    nsecs: 943169024
  frame_id: "base_link"
status: 
  status: 0
  service: 1
latitude: 40.6340621
longitude: -8.6604936
altitude: 69.4649281203
position_covariance: [0.33062499999999995, 0.0, 0.0, 0.0, 0.33062499999999995, 0.0, 0.0, 0.0, 0.727609]
position_covariance_type: 2
---
header: 
  seq: 5456
  stamp: 
    secs: 1557852424
    nsecs:  43166976
  frame_id: "base_link"
status: 
  status: 0
  service: 1
latitude: 40.6340625
longitude: -8.6604958
altitude: 69.4179244545
position_covariance: [0.33062499999999995, 0.0, 0.0, 0.0, 0.33062499999999995, 0.0, 0.0, 0.0, 0.727609]
position_covariance_type: 2
---
header: 
  seq: 5457
  stamp: 
    secs: 1557852424
    nsecs: 143164160
  frame_id: "base_link"
status: 
  status: 0
  service: 1
latitude: 40.6340625
longitude: -8.660498
altitude: 69.388920172
position_covariance: [0.3203559999999999, 0.0, 0.0, 0.0, 0.3203559999999999, 0.0, 0.0, 0.0, 0.7055999999999999]
position_covariance_type: 2
---
header: 
  seq: 5458
  stamp: 
    secs: 1557852424
    nsecs: 244161088
  frame_id: "base_link"
status: 
  status: 0
  service: 1
latitude: 40.6340619
longitude: -8.6605003
altitude: 69.37191477
position_covariance: [0.3203559999999999, 0.0, 0.0, 0.0, 0.3203559999999999, 0.0, 0.0, 0.0, 0.7055999999999999]
position_covariance_type: 2
---
header: 
  seq: 5459
  stamp: 
    secs: 1557852424
    nsecs: 344158272
  frame_id: "base_link"
status: 
  status: 0
  service: 1
latitude: 40.6340608
longitude: -8.6605027
altitude: 69.3649084024
position_covariance: [0.31248100000000006, 0.0, 0.0, 0.0, 0.31248100000000006, 0.0, 0.0, 0.0, 0.695556]
position_covariance_type: 2
---
header: 
  seq: 5460
  stamp: 
    secs: 1557852424
    nsecs: 444155200
  frame_id: "base_link"
status: 
  status: 0
  service: 1
latitude: 40.6340593
longitude: -8.6605051
altitude: 69.3609014182
position_covariance: [0.31248100000000006, 0.0, 0.0, 0.0, 0.31248100000000006, 0.0, 0.0, 0.0, 0.695556]
position_covariance_type: 2
---
header: 
  seq: 5461
  stamp: 
    secs: 1557852424
    nsecs: 545152128
  frame_id: "base_link"
status: 
  status: 0
  service: 1
latitude: 40.6340574
longitude: -8.6605076
altitude: 69.3588936227
position_covariance: [0.3069160000000001, 0.0, 0.0, 0.0, 0.3069160000000001, 0.0, 0.0, 0.0, 0.685584]
position_covariance_type: 2
---
header: 
  seq: 5462
  stamp: 
    secs: 1557852424
    nsecs: 641150080
  frame_id: "base_link"
status: 
  status: 0
  service: 1
latitude: 40.6340551
longitude: -8.66051
altitude: 69.3628854051
position_covariance: [0.3069160000000001, 0.0, 0.0, 0.0, 0.3069160000000001, 0.0, 0.0, 0.0, 0.685584]
position_covariance_type: 2
---
header: 
  seq: 5463
  stamp: 
    secs: 1557852424
    nsecs: 745146752
  frame_id: "base_link"
status: 
  status: 0
  service: 1
latitude: 40.6340522
longitude: -8.6605126
altitude: 69.3688758733
position_covariance: [0.30140100000000003, 0.0, 0.0, 0.0, 0.30140100000000003, 0.0, 0.0, 0.0, 0.677329]
position_covariance_type: 2
---
header: 
  seq: 5464
  stamp: 
    secs: 1557852424
    nsecs: 845142656
  frame_id: "base_link"
status: 
  status: 0
  service: 1
latitude: 40.6340491
longitude: -8.6605153
altitude: 69.3798658385
position_covariance: [0.30140100000000003, 0.0, 0.0, 0.0, 0.30140100000000003, 0.0, 0.0, 0.0, 0.677329]
position_covariance_type: 2
---
header: 
  seq: 5465
  stamp: 
    secs: 1557852424
    nsecs: 942140864
  frame_id: "base_link"
status: 
  status: 0
  service: 1
latitude: 40.6340456
longitude: -8.6605179
altitude: 69.3888553816
position_covariance: [0.29593600000000003, 0.0, 0.0, 0.0, 0.29593600000000003, 0.0, 0.0, 0.0, 0.6707609999999999]
position_covariance_type: 2
---
header: 
  seq: 5466
  stamp: 
    secs: 1557852425
    nsecs:  42139072
  frame_id: "base_link"
status: 
  status: 0
  service: 1
latitude: 40.6340417
longitude: -8.6605206
altitude: 69.4018441135
position_covariance: [0.29593600000000003, 0.0, 0.0, 0.0, 0.29593600000000003, 0.0, 0.0, 0.0, 0.6707609999999999]
position_covariance_type: 2
---
header: 
  seq: 5467
  stamp: 
    secs: 1557852425
    nsecs: 142136000
  frame_id: "base_link"
status: 
  status: 0
  service: 1
latitude: 40.6340375
longitude: -8.6605233
altitude: 69.4148323828
position_covariance: [0.2916, 0.0, 0.0, 0.0, 0.2916, 0.0, 0.0, 0.0, 0.662596]
position_covariance_type: 2
---
header: 
  seq: 5468
  stamp: 
    secs: 1557852425
    nsecs: 242133952
  frame_id: "base_link"
status: 
  status: 0
  service: 1
latitude: 40.6340329
longitude: -8.6605261
altitude: 69.4368198408
position_covariance: [0.2916, 0.0, 0.0, 0.0, 0.2916, 0.0, 0.0, 0.0, 0.662596]
position_covariance_type: 2
---
header: 
  seq: 5469
  stamp: 
    secs: 1557852425
    nsecs: 343126784
  frame_id: "base_link"
status: 
  status: 0
  service: 1
latitude: 40.634028
longitude: -8.660529
altitude: 69.4618066416
position_covariance: [0.28729600000000005, 0.0, 0.0, 0.0, 0.28729600000000005, 0.0, 0.0, 0.0, 0.6544810000000001]
position_covariance_type: 2
---
header: 
  seq: 5470
  stamp: 
    secs: 1557852425
    nsecs: 446123968
  frame_id: "base_link"
status: 
  status: 0
  service: 1
latitude: 40.6340226
longitude: -8.660532
altitude: 69.4927924768
position_covariance: [0.28729600000000005, 0.0, 0.0, 0.0, 0.28729600000000005, 0.0, 0.0, 0.0, 0.6544810000000001]
position_covariance_type: 2
---
header: 
  seq: 5471
  stamp: 
    secs: 1557852425
    nsecs: 547120640
  frame_id: "base_link"
status: 
  status: 0
  service: 1
latitude: 40.634017
longitude: -8.6605349
altitude: 69.5197781984
position_covariance: [0.28302400000000005, 0.0, 0.0, 0.0, 0.28302400000000005, 0.0, 0.0, 0.0, 0.6480250000000001]
position_covariance_type: 2
---
header: 
  seq: 5472
  stamp: 
    secs: 1557852425
    nsecs: 647118592
  frame_id: "base_link"
status: 
  status: 0
  service: 1
latitude: 40.6340111
longitude: -8.6605378
altitude: 69.5497634574
position_covariance: [0.28302400000000005, 0.0, 0.0, 0.0, 0.28302400000000005, 0.0, 0.0, 0.0, 0.6480250000000001]
position_covariance_type: 2
---
header: 
  seq: 5473
  stamp: 
    secs: 1557852425
    nsecs: 743115776
  frame_id: "base_link"
status: 
  status: 0
  service: 1
latitude: 40.6340051
longitude: -8.6605408
altitude: 69.5777483676
position_covariance: [0.279841, 0.0, 0.0, 0.0, 0.279841, 0.0, 0.0, 0.0, 0.6400000000000001]
position_covariance_type: 2
---
header: 
  seq: 5474
  stamp: 
    secs: 1557852425
    nsecs: 843112960
  frame_id: "base_link"
status: 
  status: 0
  service: 1
latitude: 40.6339987
longitude: -8.6605438
altitude: 69.6017326611
position_covariance: [0.279841, 0.0, 0.0, 0.0, 0.279841, 0.0, 0.0, 0.0, 0.6400000000000001]
position_covariance_type: 2
---
header: 
  seq: 5475
  stamp: 
    secs: 1557852425
    nsecs: 943111680
  frame_id: "base_link"
status: 
  status: 0
  service: 1
latitude: 40.6339919
longitude: -8.6605468
altitude: 69.6247163378
position_covariance: [0.275625, 0.0, 0.0, 0.0, 0.275625, 0.0, 0.0, 0.0, 0.6336160000000001]
position_covariance_type: 2
---
header: 
  seq: 5476
  stamp: 
    secs: 1557852426
    nsecs:  44109376
  frame_id: "base_link"
status: 
  status: 0
  service: 1
latitude: 40.6339849
longitude: -8.6605498
altitude: 69.6386997061
position_covariance: [0.275625, 0.0, 0.0, 0.0, 0.275625, 0.0, 0.0, 0.0, 0.6336160000000001]
position_covariance_type: 2
---
header: 
  seq: 5477
  stamp: 
    secs: 1557852426
    nsecs: 144106048
  frame_id: "base_link"
status: 
  status: 0
  service: 1
latitude: 40.6339776
longitude: -8.6605529
altitude: 69.6406824173
position_covariance: [0.272484, 0.0, 0.0, 0.0, 0.272484, 0.0, 0.0, 0.0, 0.627264]
position_covariance_type: 2
---
header: 
  seq: 5478
  stamp: 
    secs: 1557852426
    nsecs: 244104768
  frame_id: "base_link"
status: 
  status: 0
  service: 1
latitude: 40.6339701
longitude: -8.660556
altitude: 69.62866482
position_covariance: [0.272484, 0.0, 0.0, 0.0, 0.272484, 0.0, 0.0, 0.0, 0.627264]
position_covariance_type: 2
---
header: 
  seq: 5479
  stamp: 
    secs: 1557852426
    nsecs: 344100928
  frame_id: "base_link"
status: 
  status: 0
  service: 1
latitude: 40.6339624
longitude: -8.6605591
altitude: 69.6086469143
position_covariance: [0.269361, 0.0, 0.0, 0.0, 0.269361, 0.0, 0.0, 0.0, 0.620944]
position_covariance_type: 2
---
header: 
  seq: 5480
  stamp: 
    secs: 1557852426
    nsecs: 441098112
  frame_id: "base_link"
status: 
  status: 0
  service: 1
latitude: 40.6339547
longitude: -8.6605622
altitude: 69.5846290086
position_covariance: [0.269361, 0.0, 0.0, 0.0, 0.269361, 0.0, 0.0, 0.0, 0.620944]
position_covariance_type: 2
---
header: 
  seq: 5481
  stamp: 
    secs: 1557852426
    nsecs: 541095296
  frame_id: "base_link"
status: 
  status: 0
  service: 1
latitude: 40.6339464
longitude: -8.6605653
altitude: 69.5576101778
position_covariance: [0.267289, 0.0, 0.0, 0.0, 0.267289, 0.0, 0.0, 0.0, 0.6193690000000001]
position_covariance_type: 2
---
header: 
  seq: 5482
  stamp: 
    secs: 1557852426
    nsecs: 645090944
  frame_id: "base_link"
status: 
  status: 0
  service: 1
latitude: 40.6339375
longitude: -8.6605686
altitude: 69.5325900325
position_covariance: [0.267289, 0.0, 0.0, 0.0, 0.267289, 0.0, 0.0, 0.0, 0.6193690000000001]
position_covariance_type: 2
---
header: 
  seq: 5483
  stamp: 
    secs: 1557852426
    nsecs: 745088384
  frame_id: "base_link"
status: 
  status: 0
  service: 1
latitude: 40.6339286
longitude: -8.6605717
altitude: 69.5085702766
position_covariance: [0.265225, 0.0, 0.0, 0.0, 0.265225, 0.0, 0.0, 0.0, 0.616225]
position_covariance_type: 2
---
header: 
  seq: 5484
  stamp: 
    secs: 1557852426
    nsecs: 842086336
  frame_id: "base_link"
status: 
  status: 0
  service: 1
latitude: 40.6339198
longitude: -8.6605747
altitude: 69.4885508693
position_covariance: [0.265225, 0.0, 0.0, 0.0, 0.265225, 0.0, 0.0, 0.0, 0.616225]
position_covariance_type: 2
---
header: 
  seq: 5485
  stamp: 
    secs: 1557852426
    nsecs: 946083520
  frame_id: "base_link"
status: 
  status: 0
  service: 1
latitude: 40.6339101
longitude: -8.6605779
altitude: 69.4645296852
position_covariance: [0.263169, 0.0, 0.0, 0.0, 0.263169, 0.0, 0.0, 0.0, 0.6115240000000001]
position_covariance_type: 2
---
header: 
  seq: 5486
  stamp: 
    secs: 1557852427
    nsecs:  42080448
  frame_id: "base_link"
status: 
  status: 0
  service: 1
latitude: 40.6339008
longitude: -8.6605808
altitude: 69.4435097016
position_covariance: [0.263169, 0.0, 0.0, 0.0, 0.263169, 0.0, 0.0, 0.0, 0.6115240000000001]
position_covariance_type: 2
---
header: 
  seq: 5487
  stamp: 
    secs: 1557852427
    nsecs: 142077888
  frame_id: "base_link"
status: 
  status: 0
  service: 1
latitude: 40.633891
longitude: -8.6605839
altitude: 69.4224885577
position_covariance: [0.261121, 0.0, 0.0, 0.0, 0.261121, 0.0, 0.0, 0.0, 0.6084]
position_covariance_type: 2
---
header: 
  seq: 5488
  stamp: 
    secs: 1557852427
    nsecs: 247075840
  frame_id: "base_link"
status: 
  status: 0
  service: 1
latitude: 40.6338805
longitude: -8.660587
altitude: 69.4054663346
position_covariance: [0.261121, 0.0, 0.0, 0.0, 0.261121, 0.0, 0.0, 0.0, 0.6084]
position_covariance_type: 2
---
header: 
  seq: 5489
  stamp: 
    secs: 1557852427
    nsecs: 347070976
  frame_id: "base_link"
status: 
  status: 0
  service: 1
latitude: 40.6338703
longitude: -8.6605901
altitude: 69.3944445738
position_covariance: [0.259081, 0.0, 0.0, 0.0, 0.259081, 0.0, 0.0, 0.0, 0.605284]
position_covariance_type: 2
---
header: 
  seq: 5490
  stamp: 
    secs: 1557852427
    nsecs: 443069440
  frame_id: "base_link"
status: 
  status: 0
  service: 1
latitude: 40.6338603
longitude: -8.660593
altitude: 69.3874235107
position_covariance: [0.259081, 0.0, 0.0, 0.0, 0.259081, 0.0, 0.0, 0.0, 0.605284]
position_covariance_type: 2
---
header: 
  seq: 5491
  stamp: 
    secs: 1557852427
    nsecs: 544067904
  frame_id: "base_link"
status: 
  status: 0
  service: 1
latitude: 40.6338495
longitude: -8.6605961
altitude: 69.3744008247
position_covariance: [0.257049, 0.0, 0.0, 0.0, 0.257049, 0.0, 0.0, 0.0, 0.602176]
position_covariance_type: 2
---
header: 
  seq: 5492
  stamp: 
    secs: 1557852427
    nsecs: 644063552
  frame_id: "base_link"
status: 
  status: 0
  service: 1
latitude: 40.6338388
longitude: -8.6605991
altitude: 69.3723784874
position_covariance: [0.257049, 0.0, 0.0, 0.0, 0.257049, 0.0, 0.0, 0.0, 0.602176]
position_covariance_type: 2
---
header: 
  seq: 5493
  stamp: 
    secs: 1557852427
    nsecs: 744060224
  frame_id: "base_link"
status: 
  status: 0
  service: 1
latitude: 40.6338278
longitude: -8.6606022
altitude: 69.3713554929
position_covariance: [0.256036, 0.0, 0.0, 0.0, 0.256036, 0.0, 0.0, 0.0, 0.599076]
position_covariance_type: 2
---
header: 
  seq: 5494
  stamp: 
    secs: 1557852427
    nsecs: 846056384
  frame_id: "base_link"
status: 
  status: 0
  service: 1
latitude: 40.6338165
longitude: -8.6606053
altitude: 69.3763320357
position_covariance: [0.256036, 0.0, 0.0, 0.0, 0.256036, 0.0, 0.0, 0.0, 0.599076]
position_covariance_type: 2
---
header: 
  seq: 5495
  stamp: 
    secs: 1557852427
    nsecs: 942053568
  frame_id: "base_link"
status: 
  status: 0
  service: 1
latitude: 40.6338057
longitude: -8.6606082
altitude: 69.3783097386
position_covariance: [0.255025, 0.0, 0.0, 0.0, 0.255025, 0.0, 0.0, 0.0, 0.597529]
position_covariance_type: 2
---
header: 
  seq: 5496
  stamp: 
    secs: 1557852428
    nsecs:  46050496
  frame_id: "base_link"
status: 
  status: 0
  service: 1
latitude: 40.6337939
longitude: -8.6606113
altitude: 69.3802855103
position_covariance: [0.255025, 0.0, 0.0, 0.0, 0.255025, 0.0, 0.0, 0.0, 0.597529]
position_covariance_type: 2
---
header: 
  seq: 5497
  stamp: 
    secs: 1557852428
    nsecs: 147048448
  frame_id: "base_link"
status: 
  status: 0
  service: 1
latitude: 40.6337822
longitude: -8.6606144
altitude: 69.3812614361
position_covariance: [0.253009, 0.0, 0.0, 0.0, 0.253009, 0.0, 0.0, 0.0, 0.5959840000000001]
position_covariance_type: 2
---
header: 
  seq: 5498
  stamp: 
    secs: 1557852428
    nsecs: 247045376
  frame_id: "base_link"
status: 
  status: 0
  service: 1
latitude: 40.6337705
longitude: -8.6606174
altitude: 69.3902375564
position_covariance: [0.253009, 0.0, 0.0, 0.0, 0.253009, 0.0, 0.0, 0.0, 0.5959840000000001]
position_covariance_type: 2
---
header: 
  seq: 5499
  stamp: 
    secs: 1557852428
    nsecs: 343039744
  frame_id: "base_link"
status: 
  status: 0
  service: 1
latitude: 40.6337591
longitude: -8.6606204
altitude: 69.3942141391
position_covariance: [0.251001, 0.0, 0.0, 0.0, 0.251001, 0.0, 0.0, 0.0, 0.594441]
position_covariance_type: 2
---
header: 
  seq: 5500
  stamp: 
    secs: 1557852428
    nsecs: 447036416
  frame_id: "base_link"
status: 
  status: 0
  service: 1
latitude: 40.6337465
longitude: -8.6606236
altitude: 69.3971884821
position_covariance: [0.251001, 0.0, 0.0, 0.0, 0.251001, 0.0, 0.0, 0.0, 0.594441]
position_covariance_type: 2
---
header: 
  seq: 5501
  stamp: 
    secs: 1557852428
    nsecs: 543034880
  frame_id: "base_link"
status: 
  status: 0
  service: 1
latitude: 40.6337347
longitude: -8.6606266
altitude: 69.3951644479
position_covariance: [0.249001, 0.0, 0.0, 0.0, 0.249001, 0.0, 0.0, 0.0, 0.5882890000000001]
position_covariance_type: 2
---
header: 
  seq: 5502
  stamp: 
    secs: 1557852428
    nsecs: 643032320
  frame_id: "base_link"
status: 
  status: 0
  service: 1
latitude: 40.6337225
longitude: -8.6606297
altitude: 69.3901396021
position_covariance: [0.249001, 0.0, 0.0, 0.0, 0.249001, 0.0, 0.0, 0.0, 0.5882890000000001]
position_covariance_type: 2
---
header: 
  seq: 5503
  stamp: 
    secs: 1557852428
    nsecs: 743030784
  frame_id: "base_link"
status: 
  status: 0
  service: 1
latitude: 40.6337101
longitude: -8.6606329
altitude: 69.3861142532
position_covariance: [0.248004, 0.0, 0.0, 0.0, 0.248004, 0.0, 0.0, 0.0, 0.585225]
position_covariance_type: 2
---
header: 
  seq: 5504
  stamp: 
    secs: 1557852428
    nsecs: 844027456
  frame_id: "base_link"
status: 
  status: 0
  service: 1
latitude: 40.6336976
longitude: -8.6606361
altitude: 69.3810887499
position_covariance: [0.248004, 0.0, 0.0, 0.0, 0.248004, 0.0, 0.0, 0.0, 0.585225]
position_covariance_type: 2
---
header: 
  seq: 5505
  stamp: 
    secs: 1557852428
    nsecs: 944025408
  frame_id: "base_link"
status: 
  status: 0
  service: 1
latitude: 40.6336852
longitude: -8.6606393
altitude: 69.4140634006
position_covariance: [0.24601599999999998, 0.0, 0.0, 0.0, 0.24601599999999998, 0.0, 0.0, 0.0, 0.582169]
position_covariance_type: 2
---
header: 
  seq: 5506
  stamp: 
    secs: 1557852429
    nsecs:  44022592
  frame_id: "base_link"
status: 
  status: 0
  service: 1
latitude: 40.6336735
longitude: -8.6606427
altitude: 69.5220387412
position_covariance: [0.24601599999999998, 0.0, 0.0, 0.0, 0.24601599999999998, 0.0, 0.0, 0.0, 0.582169]
position_covariance_type: 2
---
header: 
  seq: 5507
  stamp: 
    secs: 1557852429
    nsecs: 144019776
  frame_id: "base_link"
status: 
  status: 0
  service: 1
latitude: 40.6336625
longitude: -8.6606461
altitude: 69.656015161
position_covariance: [0.24601599999999998, 0.0, 0.0, 0.0, 0.24601599999999998, 0.0, 0.0, 0.0, 0.586756]
position_covariance_type: 2
---
header: 
  seq: 5508
  stamp: 
    secs: 1557852429
    nsecs: 245017472
  frame_id: "base_link"
status: 
  status: 0
  service: 1
latitude: 40.6336521
longitude: -8.6606496
altitude: 69.769992311
position_covariance: [0.24601599999999998, 0.0, 0.0, 0.0, 0.24601599999999998, 0.0, 0.0, 0.0, 0.586756]
position_covariance_type: 2
---
header: 
  seq: 5509
  stamp: 
    secs: 1557852429
    nsecs: 341013120
  frame_id: "base_link"
status: 
  status: 0
  service: 1
latitude: 40.6336428
longitude: -8.6606529
altitude: 69.8589715465
position_covariance: [0.244036, 0.0, 0.0, 0.0, 0.244036, 0.0, 0.0, 0.0, 0.579121]
position_covariance_type: 2
---
header: 
  seq: 5510
  stamp: 
    secs: 1557852429
    nsecs: 445010816
  frame_id: "base_link"
status: 
  status: 0
  service: 1
latitude: 40.6336333
longitude: -8.6606565
altitude: 69.9249498894
position_covariance: [0.244036, 0.0, 0.0, 0.0, 0.244036, 0.0, 0.0, 0.0, 0.579121]
position_covariance_type: 2
---
header: 
  seq: 5511
  stamp: 
    secs: 1557852429
    nsecs: 545006720
  frame_id: "base_link"
status: 
  status: 0
  service: 1
latitude: 40.6336247
longitude: -8.6606601
altitude: 69.96592962
position_covariance: [0.243049, 0.0, 0.0, 0.0, 0.243049, 0.0, 0.0, 0.0, 0.571536]
position_covariance_type: 2
---
header: 
  seq: 5512
  stamp: 
    secs: 1557852429
    nsecs: 642004160
  frame_id: "base_link"
status: 
  status: 0
  service: 1
latitude: 40.633617
longitude: -8.6606636
altitude: 69.9839109328
position_covariance: [0.243049, 0.0, 0.0, 0.0, 0.243049, 0.0, 0.0, 0.0, 0.571536]
position_covariance_type: 2
---
header: 
  seq: 5513
  stamp: 
    secs: 1557852429
    nsecs: 746002368
  frame_id: "base_link"
status: 
  status: 0
  service: 1
latitude: 40.6336094
longitude: -8.6606674
altitude: 69.9898918157
position_covariance: [0.242064, 0.0, 0.0, 0.0, 0.242064, 0.0, 0.0, 0.0, 0.564001]
position_covariance_type: 2
---
header: 
  seq: 5514
  stamp: 
    secs: 1557852429
    nsecs: 842000320
  frame_id: "base_link"
status: 
  status: 0
  service: 1
latitude: 40.633603
longitude: -8.6606709
altitude: 69.977875133
position_covariance: [0.242064, 0.0, 0.0, 0.0, 0.242064, 0.0, 0.0, 0.0, 0.564001]
position_covariance_type: 2
---
header: 
  seq: 5515
  stamp: 
    secs: 1557852429
    nsecs: 945998528
  frame_id: "base_link"
status: 
  status: 0
  service: 1
latitude: 40.6335968
longitude: -8.6606749
altitude: 69.9488577851
position_covariance: [0.242064, 0.0, 0.0, 0.0, 0.242064, 0.0, 0.0, 0.0, 0.559504]
position_covariance_type: 2
---
header: 
  seq: 5516
  stamp: 
    secs: 1557852430
    nsecs:  46996992
  frame_id: "base_link"
status: 
  status: 0
  service: 1
latitude: 40.6335915
longitude: -8.6606787
altitude: 69.9038422142
position_covariance: [0.242064, 0.0, 0.0, 0.0, 0.242064, 0.0, 0.0, 0.0, 0.559504]
position_covariance_type: 2
---
header: 
  seq: 5517
  stamp: 
    secs: 1557852430
    nsecs: 145994176
  frame_id: "base_link"
status: 
  status: 0
  service: 1
latitude: 40.6335869
longitude: -8.6606825
altitude: 69.8528277227
position_covariance: [0.242064, 0.0, 0.0, 0.0, 0.242064, 0.0, 0.0, 0.0, 0.555025]
position_covariance_type: 2
---
header: 
  seq: 5518
  stamp: 
    secs: 1557852430
    nsecs: 245990848
  frame_id: "base_link"
status: 
  status: 0
  service: 1
latitude: 40.6335831
longitude: -8.6606862
altitude: 69.7898146594
position_covariance: [0.242064, 0.0, 0.0, 0.0, 0.242064, 0.0, 0.0, 0.0, 0.555025]
position_covariance_type: 2
---
header: 
  seq: 5519
  stamp: 
    secs: 1557852430
    nsecs: 346988544
  frame_id: "base_link"
status: 
  status: 0
  service: 1
latitude: 40.63358
longitude: -8.6606899
altitude: 69.7278026754
position_covariance: [0.242064, 0.0, 0.0, 0.0, 0.242064, 0.0, 0.0, 0.0, 0.5476]
position_covariance_type: 2
---
header: 
  seq: 5520
  stamp: 
    secs: 1557852430
    nsecs: 443985728
  frame_id: "base_link"
status: 
  status: 0
  service: 1
latitude: 40.6335777
longitude: -8.6606934
altitude: 69.6577923144
position_covariance: [0.242064, 0.0, 0.0, 0.0, 0.242064, 0.0, 0.0, 0.0, 0.5476]
position_covariance_type: 2
---
header: 
  seq: 5521
  stamp: 
    secs: 1557852430
    nsecs: 543982144
  frame_id: "base_link"
status: 
  status: 0
  service: 1
latitude: 40.6335758
longitude: -8.6606969
altitude: 69.6097825701
position_covariance: [0.242064, 0.0, 0.0, 0.0, 0.242064, 0.0, 0.0, 0.0, 0.543169]
position_covariance_type: 2
---
header: 
  seq: 5522
  stamp: 
    secs: 1557852430
    nsecs: 644980096
  frame_id: "base_link"
status: 
  status: 0
  service: 1
latitude: 40.6335743
longitude: -8.6607001
altitude: 69.5817740266
position_covariance: [0.242064, 0.0, 0.0, 0.0, 0.242064, 0.0, 0.0, 0.0, 0.543169]
position_covariance_type: 2
---
header: 
  seq: 5523
  stamp: 
    secs: 1557852430
    nsecs: 744977792
  frame_id: "base_link"
status: 
  status: 0
  service: 1
latitude: 40.6335727
longitude: -8.6607031
altitude: 69.5757657184
position_covariance: [0.241081, 0.0, 0.0, 0.0, 0.241081, 0.0, 0.0, 0.0, 0.543169]
position_covariance_type: 2
---
header: 
  seq: 5524
  stamp: 
    secs: 1557852430
    nsecs: 844977536
  frame_id: "base_link"
status: 
  status: 0
  service: 1
latitude: 40.6335713
longitude: -8.6607058
altitude: 69.5927583026
position_covariance: [0.241081, 0.0, 0.0, 0.0, 0.241081, 0.0, 0.0, 0.0, 0.543169]
position_covariance_type: 2
---
header: 
  seq: 5525
  stamp: 
    secs: 1557852430
    nsecs: 944973696
  frame_id: "base_link"
status: 
  status: 0
  service: 1
latitude: 40.6335698
longitude: -8.6607085
altitude: 69.6237507327
position_covariance: [0.24009999999999998, 0.0, 0.0, 0.0, 0.24009999999999998, 0.0, 0.0, 0.0, 0.541696]
position_covariance_type: 2
---
header: 
  seq: 5526
  stamp: 
    secs: 1557852431
    nsecs:  45970624
  frame_id: "base_link"
status: 
  status: 0
  service: 1
latitude: 40.6335684
longitude: -8.6607109
altitude: 69.667743901
position_covariance: [0.24009999999999998, 0.0, 0.0, 0.0, 0.24009999999999998, 0.0, 0.0, 0.0, 0.541696]
position_covariance_type: 2
---
header: 
  seq: 5527
  stamp: 
    secs: 1557852431
    nsecs: 141967552
  frame_id: "base_link"
status: 
  status: 0
  service: 1
latitude: 40.6335671
longitude: -8.660713
altitude: 69.7137378076
position_covariance: [0.239121, 0.0, 0.0, 0.0, 0.239121, 0.0, 0.0, 0.0, 0.541696]
position_covariance_type: 2
---
header: 
  seq: 5528
  stamp: 
    secs: 1557852431
    nsecs: 245964992
  frame_id: "base_link"
status: 
  status: 0
  service: 1
latitude: 40.6335657
longitude: -8.6607152
altitude: 69.7587313653
position_covariance: [0.239121, 0.0, 0.0, 0.0, 0.239121, 0.0, 0.0, 0.0, 0.541696]
position_covariance_type: 2
---
header: 
  seq: 5529
  stamp: 
    secs: 1557852431
    nsecs: 341959360
  frame_id: "base_link"
status: 
  status: 0
  service: 1
latitude: 40.6335644
longitude: -8.660717
altitude: 69.7957258561
position_covariance: [0.237169, 0.0, 0.0, 0.0, 0.237169, 0.0, 0.0, 0.0, 0.540225]
position_covariance_type: 2
---
header: 
  seq: 5530
  stamp: 
    secs: 1557852431
    nsecs: 445956800
  frame_id: "base_link"
status: 
  status: 0
  service: 1
latitude: 40.6335631
longitude: -8.6607188
altitude: 69.8287203468
position_covariance: [0.237169, 0.0, 0.0, 0.0, 0.237169, 0.0, 0.0, 0.0, 0.540225]
position_covariance_type: 2
---
header: 
  seq: 5531
  stamp: 
    secs: 1557852431
    nsecs: 542953728
  frame_id: "base_link"
status: 
  status: 0
  service: 1
latitude: 40.6335618
longitude: -8.6607203
altitude: 69.8517154216
position_covariance: [0.236196, 0.0, 0.0, 0.0, 0.236196, 0.0, 0.0, 0.0, 0.540225]
position_covariance_type: 2
---
header: 
  seq: 5532
  stamp: 
    secs: 1557852431
    nsecs: 642951680
  frame_id: "base_link"
status: 
  status: 0
  service: 1
latitude: 40.6335606
longitude: -8.6607218
altitude: 69.8697106507
position_covariance: [0.236196, 0.0, 0.0, 0.0, 0.236196, 0.0, 0.0, 0.0, 0.540225]
position_covariance_type: 2
---
header: 
  seq: 5533
  stamp: 
    secs: 1557852431
    nsecs: 742949120
  frame_id: "base_link"
status: 
  status: 0
  service: 1
latitude: 40.6335594
longitude: -8.6607232
altitude: 69.8867060744
position_covariance: [0.23232399999999997, 0.0, 0.0, 0.0, 0.23232399999999997, 0.0, 0.0, 0.0, 0.534361]
position_covariance_type: 2
---
header: 
  seq: 5534
  stamp: 
    secs: 1557852431
    nsecs: 842947072
  frame_id: "base_link"
status: 
  status: 0
  service: 1
latitude: 40.6335582
longitude: -8.6607246
altitude: 69.9027014981
position_covariance: [0.23232399999999997, 0.0, 0.0, 0.0, 0.23232399999999997, 0.0, 0.0, 0.0, 0.534361]
position_covariance_type: 2
---
header: 
  seq: 5535
  stamp: 
    secs: 1557852431
    nsecs: 942945024
  frame_id: "base_link"
status: 
  status: 0
  service: 1
latitude: 40.633557
longitude: -8.6607258
altitude: 69.9156973113
position_covariance: [0.237169, 0.0, 0.0, 0.0, 0.237169, 0.0, 0.0, 0.0, 0.5476]
position_covariance_type: 2
---
header: 
  seq: 5536
  stamp: 
    secs: 1557852432
    nsecs:  42941952
  frame_id: "base_link"
status: 
  status: 0
  service: 1
latitude: 40.6335559
longitude: -8.660727
altitude: 69.9296932786
position_covariance: [0.237169, 0.0, 0.0, 0.0, 0.237169, 0.0, 0.0, 0.0, 0.5476]
position_covariance_type: 2
---
header: 
  seq: 5537
  stamp: 
    secs: 1557852432
    nsecs: 142938880
  frame_id: "base_link"
status: 
  status: 0
  service: 1
latitude: 40.6335548
longitude: -8.660728
altitude: 69.9416896354
position_covariance: [0.249001, 0.0, 0.0, 0.0, 0.249001, 0.0, 0.0, 0.0, 0.564001]
position_covariance_type: 2
---
header: 
  seq: 5538
  stamp: 
    secs: 1557852432
    nsecs: 243934272
  frame_id: "base_link"
status: 
  status: 0
  service: 1
latitude: 40.6335537
longitude: -8.660729
altitude: 69.9526859921
position_covariance: [0.249001, 0.0, 0.0, 0.0, 0.249001, 0.0, 0.0, 0.0, 0.564001]
position_covariance_type: 2
---
header: 
  seq: 5539
  stamp: 
    secs: 1557852432
    nsecs: 343932480
  frame_id: "base_link"
status: 
  status: 0
  service: 1
latitude: 40.6335526
longitude: -8.6607299
altitude: 69.9586825435
position_covariance: [0.262144, 0.0, 0.0, 0.0, 0.262144, 0.0, 0.0, 0.0, 0.579121]
position_covariance_type: 2
---
header: 
  seq: 5540
  stamp: 
    secs: 1557852432
    nsecs: 443929408
  frame_id: "base_link"
status: 
  status: 0
  service: 1
latitude: 40.6335516
longitude: -8.6607306
altitude: 69.9636796386
position_covariance: [0.262144, 0.0, 0.0, 0.0, 0.262144, 0.0, 0.0, 0.0, 0.579121]
position_covariance_type: 2
---
header: 
  seq: 5541
  stamp: 
    secs: 1557852432
    nsecs: 544926592
  frame_id: "base_link"
status: 
  status: 0
  service: 1
latitude: 40.6335506
longitude: -8.6607312
altitude: 69.9656769284
position_covariance: [0.27144100000000004, 0.0, 0.0, 0.0, 0.27144100000000004, 0.0, 0.0, 0.0, 0.591361]
position_covariance_type: 2
---
header: 
  seq: 5542
  stamp: 
    secs: 1557852432
    nsecs: 640922752
  frame_id: "base_link"
status: 
  status: 0
  service: 1
latitude: 40.6335496
longitude: -8.6607318
altitude: 69.9656742181
position_covariance: [0.27144100000000004, 0.0, 0.0, 0.0, 0.27144100000000004, 0.0, 0.0, 0.0, 0.591361]
position_covariance_type: 2
---
header: 
  seq: 5543
  stamp: 
    secs: 1557852432
    nsecs: 744919936
  frame_id: "base_link"
status: 
  status: 0
  service: 1
latitude: 40.6335486
longitude: -8.6607323
altitude: 69.9606717026
position_covariance: [0.27878400000000003, 0.0, 0.0, 0.0, 0.27878400000000003, 0.0, 0.0, 0.0, 0.605284]
position_covariance_type: 2
---
header: 
  seq: 5544
  stamp: 
    secs: 1557852432
    nsecs: 840918400
  frame_id: "base_link"
status: 
  status: 0
  service: 1
latitude: 40.6335477
longitude: -8.6607326
altitude: 69.9516697307
position_covariance: [0.27878400000000003, 0.0, 0.0, 0.0, 0.27878400000000003, 0.0, 0.0, 0.0, 0.605284]
position_covariance_type: 2
---
header: 
  seq: 5545
  stamp: 
    secs: 1557852432
    nsecs: 941916352
  frame_id: "base_link"
status: 
  status: 0
  service: 1
latitude: 40.6335468
longitude: -8.6607329
altitude: 69.9406677588
position_covariance: [0.286225, 0.0, 0.0, 0.0, 0.286225, 0.0, 0.0, 0.0, 0.617796]
position_covariance_type: 2
---
header: 
  seq: 5546
  stamp: 
    secs: 1557852433
    nsecs:  45914048
  frame_id: "base_link"
status: 
  status: 0
  service: 1
latitude: 40.633546
longitude: -8.6607331
altitude: 69.9256661358
position_covariance: [0.286225, 0.0, 0.0, 0.0, 0.286225, 0.0, 0.0, 0.0, 0.617796]
position_covariance_type: 2
---
header: 
  seq: 5547
  stamp: 
    secs: 1557852433
    nsecs: 141911744
  frame_id: "base_link"
status: 
  status: 0
  service: 1
latitude: 40.6335452
longitude: -8.6607332
altitude: 69.9106647075
position_covariance: [0.293764, 0.0, 0.0, 0.0, 0.293764, 0.0, 0.0, 0.0, 0.6320250000000001]
position_covariance_type: 2
---
header: 
  seq: 5548
  stamp: 
    secs: 1557852433
    nsecs: 245910208
  frame_id: "base_link"
status: 
  status: 0
  service: 1
latitude: 40.6335444
longitude: -8.6607332
altitude: 69.8886634739
position_covariance: [0.293764, 0.0, 0.0, 0.0, 0.293764, 0.0, 0.0, 0.0, 0.6320250000000001]
position_covariance_type: 2
---
header: 
  seq: 5549
  stamp: 
    secs: 1557852433
    nsecs: 346908416
  frame_id: "base_link"
status: 
  status: 0
  service: 1
latitude: 40.6335437
longitude: -8.6607332
altitude: 69.8676623945
position_covariance: [0.30250000000000005, 0.0, 0.0, 0.0, 0.30250000000000005, 0.0, 0.0, 0.0, 0.6464160000000001]
position_covariance_type: 2
---
header: 
  seq: 5550
  stamp: 
    secs: 1557852433
    nsecs: 442905600
  frame_id: "base_link"
status: 
  status: 0
  service: 1
latitude: 40.633543
longitude: -8.6607331
altitude: 69.8466615098
position_covariance: [0.30250000000000005, 0.0, 0.0, 0.0, 0.30250000000000005, 0.0, 0.0, 0.0, 0.6464160000000001]
position_covariance_type: 2
---
header: 
  seq: 5551
  stamp: 
    secs: 1557852433
    nsecs: 542903808
  frame_id: "base_link"
status: 
  status: 0
  service: 1
latitude: 40.6335423
longitude: -8.6607329
altitude: 69.8246608199
position_covariance: [0.31024900000000005, 0.0, 0.0, 0.0, 0.31024900000000005, 0.0, 0.0, 0.0, 0.659344]
position_covariance_type: 2
---
header: 
  seq: 5552
  stamp: 
    secs: 1557852433
    nsecs: 645902272
  frame_id: "base_link"
status: 
  status: 0
  service: 1
latitude: 40.6335417
longitude: -8.6607326
altitude: 69.8046604788
position_covariance: [0.31024900000000005, 0.0, 0.0, 0.0, 0.31024900000000005, 0.0, 0.0, 0.0, 0.659344]
position_covariance_type: 2
---
header: 
  seq: 5553
  stamp: 
    secs: 1557852433
    nsecs: 743898944
  frame_id: "base_link"
status: 
  status: 0
  service: 1
latitude: 40.6335411
longitude: -8.6607323
altitude: 69.7896601377
position_covariance: [0.31809599999999993, 0.0, 0.0, 0.0, 0.31809599999999993, 0.0, 0.0, 0.0, 0.6723999999999999]
position_covariance_type: 2
---
header: 
  seq: 5554
  stamp: 
    secs: 1557852433
    nsecs: 843896896
  frame_id: "base_link"
status: 
  status: 0
  service: 1
latitude: 40.6335405
longitude: -8.6607319
altitude: 69.7746599914
position_covariance: [0.31809599999999993, 0.0, 0.0, 0.0, 0.31809599999999993, 0.0, 0.0, 0.0, 0.6723999999999999]
position_covariance_type: 2
---
header: 
  seq: 5555
  stamp: 
    secs: 1557852433
    nsecs: 944894592
  frame_id: "base_link"
status: 
  status: 0
  service: 1
latitude: 40.6335399
longitude: -8.6607314
altitude: 69.7616600397
position_covariance: [0.3203559999999999, 0.0, 0.0, 0.0, 0.3203559999999999, 0.0, 0.0, 0.0, 0.6806249999999999]
position_covariance_type: 2
---
header: 
  seq: 5556
  stamp: 
    secs: 1557852434
    nsecs:  44891008
  frame_id: "base_link"
status: 
  status: 0
  service: 1
latitude: 40.6335394
longitude: -8.6607308
altitude: 69.748660437
position_covariance: [0.3203559999999999, 0.0, 0.0, 0.0, 0.3203559999999999, 0.0, 0.0, 0.0, 0.6806249999999999]
position_covariance_type: 2
---
header: 
  seq: 5557
  stamp: 
    secs: 1557852434
    nsecs: 144889472
  frame_id: "base_link"
status: 
  status: 0
  service: 1
latitude: 40.6335389
longitude: -8.6607302
altitude: 69.7366608343
position_covariance: [0.3192249999999999, 0.0, 0.0, 0.0, 0.3192249999999999, 0.0, 0.0, 0.0, 0.6872409999999999]
position_covariance_type: 2
---
header: 
  seq: 5558
  stamp: 
    secs: 1557852434
    nsecs: 244885376
  frame_id: "base_link"
status: 
  status: 0
  service: 1
latitude: 40.6335384
longitude: -8.6607295
altitude: 69.7236614262
position_covariance: [0.3192249999999999, 0.0, 0.0, 0.0, 0.3192249999999999, 0.0, 0.0, 0.0, 0.6872409999999999]
position_covariance_type: 2
---
header: 
  seq: 5559
  stamp: 
    secs: 1557852434
    nsecs: 341880768
  frame_id: "base_link"
status: 
  status: 0
  service: 1
latitude: 40.6335379
longitude: -8.6607287
altitude: 69.7126622129
position_covariance: [0.3192249999999999, 0.0, 0.0, 0.0, 0.3192249999999999, 0.0, 0.0, 0.0, 0.692224]
position_covariance_type: 2
---
header: 
  seq: 5560
  stamp: 
    secs: 1557852434
    nsecs: 445878208
  frame_id: "base_link"
status: 
  status: 0
  service: 1
latitude: 40.6335374
longitude: -8.6607279
altitude: 69.6976629996
position_covariance: [0.3192249999999999, 0.0, 0.0, 0.0, 0.3192249999999999, 0.0, 0.0, 0.0, 0.692224]
position_covariance_type: 2
---
header: 
  seq: 5561
  stamp: 
    secs: 1557852434
    nsecs: 545876672
  frame_id: "base_link"
status: 
  status: 0
  service: 1
latitude: 40.633537
longitude: -8.660727
altitude: 69.6866641352
position_covariance: [0.3203559999999999, 0.0, 0.0, 0.0, 0.3203559999999999, 0.0, 0.0, 0.0, 0.698896]
position_covariance_type: 2
---
header: 
  seq: 5562
  stamp: 
    secs: 1557852434
    nsecs: 641873856
  frame_id: "base_link"
status: 
  status: 0
  service: 1
latitude: 40.6335366
longitude: -8.6607262
altitude: 69.6736650761
position_covariance: [0.3203559999999999, 0.0, 0.0, 0.0, 0.3203559999999999, 0.0, 0.0, 0.0, 0.698896]
position_covariance_type: 2
---
header: 
  seq: 5563
  stamp: 
    secs: 1557852434
    nsecs: 742871808
  frame_id: "base_link"
status: 
  status: 0
  service: 1
latitude: 40.6335362
longitude: -8.6607252
altitude: 69.6606664063
position_covariance: [0.3203559999999999, 0.0, 0.0, 0.0, 0.3203559999999999, 0.0, 0.0, 0.0, 0.7039209999999999]
position_covariance_type: 2
---
header: 
  seq: 5564
  stamp: 
    secs: 1557852434
    nsecs: 846869760
  frame_id: "base_link"
status: 
  status: 0
  service: 1
latitude: 40.6335357
longitude: -8.6607241
altitude: 69.6476677771
position_covariance: [0.3203559999999999, 0.0, 0.0, 0.0, 0.3203559999999999, 0.0, 0.0, 0.0, 0.7039209999999999]
position_covariance_type: 2
---
header: 
  seq: 5565
  stamp: 
    secs: 1557852434
    nsecs: 945866944
  frame_id: "base_link"
status: 
  status: 0
  service: 1
latitude: 40.6335353
longitude: -8.660723
altitude: 69.6396693021
position_covariance: [0.3192249999999999, 0.0, 0.0, 0.0, 0.3192249999999999, 0.0, 0.0, 0.0, 0.7089639999999999]
position_covariance_type: 2
---
header: 
  seq: 5566
  stamp: 
    secs: 1557852435
    nsecs:  42865152
  frame_id: "base_link"
status: 
  status: 0
  service: 1
latitude: 40.633535
longitude: -8.6607219
altitude: 69.6316709813
position_covariance: [0.3192249999999999, 0.0, 0.0, 0.0, 0.3192249999999999, 0.0, 0.0, 0.0, 0.7089639999999999]
position_covariance_type: 2
---
header: 
  seq: 5567
  stamp: 
    secs: 1557852435
    nsecs: 143863360
  frame_id: "base_link"
status: 
  status: 0
  service: 1
latitude: 40.6335346
longitude: -8.6607206
altitude: 69.6226728957
position_covariance: [0.3192249999999999, 0.0, 0.0, 0.0, 0.3192249999999999, 0.0, 0.0, 0.0, 0.7140249999999999]
position_covariance_type: 2
---
header: 
  seq: 5568
  stamp: 
    secs: 1557852435
    nsecs: 243860288
  frame_id: "base_link"
status: 
  status: 0
  service: 1
latitude: 40.6335342
longitude: -8.6607194
altitude: 69.6106746154
position_covariance: [0.3192249999999999, 0.0, 0.0, 0.0, 0.3192249999999999, 0.0, 0.0, 0.0, 0.7140249999999999]
position_covariance_type: 2
---
header: 
  seq: 5569
  stamp: 
    secs: 1557852435
    nsecs: 343857472
  frame_id: "base_link"
status: 
  status: 0
  service: 1
latitude: 40.6335339
longitude: -8.6607181
altitude: 69.595676684
position_covariance: [0.3192249999999999, 0.0, 0.0, 0.0, 0.3192249999999999, 0.0, 0.0, 0.0, 0.7208009999999999]
position_covariance_type: 2
---
header: 
  seq: 5570
  stamp: 
    secs: 1557852435
    nsecs: 440854144
  frame_id: "base_link"
status: 
  status: 0
  service: 1
latitude: 40.6335336
longitude: -8.6607168
altitude: 69.5786787526
position_covariance: [0.3192249999999999, 0.0, 0.0, 0.0, 0.3192249999999999, 0.0, 0.0, 0.0, 0.7208009999999999]
position_covariance_type: 2
---
header: 
  seq: 5571
  stamp: 
    secs: 1557852435
    nsecs: 544851840
  frame_id: "base_link"
status: 
  status: 0
  service: 1
latitude: 40.6335333
longitude: -8.6607153
altitude: 69.5646812106
position_covariance: [0.32148899999999997, 0.0, 0.0, 0.0, 0.32148899999999997, 0.0, 0.0, 0.0, 0.729316]
position_covariance_type: 2
---
header: 
  seq: 5572
  stamp: 
    secs: 1557852435
    nsecs: 640848000
  frame_id: "base_link"
status: 
  status: 0
  service: 1
latitude: 40.633533
longitude: -8.660714
altitude: 69.5526832792
position_covariance: [0.32148899999999997, 0.0, 0.0, 0.0, 0.32148899999999997, 0.0, 0.0, 0.0, 0.729316]
position_covariance_type: 2
---
header: 
  seq: 5573
  stamp: 
    secs: 1557852435
    nsecs: 744843904
  frame_id: "base_link"
status: 
  status: 0
  service: 1
latitude: 40.6335328
longitude: -8.6607124
altitude: 69.5416860862
position_covariance: [0.32604099999999997, 0.0, 0.0, 0.0, 0.32604099999999997, 0.0, 0.0, 0.0, 0.737881]
position_covariance_type: 2
---
header: 
  seq: 5574
  stamp: 
    secs: 1557852435
    nsecs: 845841088
  frame_id: "base_link"
status: 
  status: 0
  service: 1
latitude: 40.6335326
longitude: -8.6607109
altitude: 69.5306886983
position_covariance: [0.32604099999999997, 0.0, 0.0, 0.0, 0.32604099999999997, 0.0, 0.0, 0.0, 0.737881]
position_covariance_type: 2
---
header: 
  seq: 5575
  stamp: 
    secs: 1557852435
    nsecs: 941838784
  frame_id: "base_link"
status: 
  status: 0
  service: 1
latitude: 40.6335324
longitude: -8.6607093
altitude: 69.5226915053
position_covariance: [0.33062499999999995, 0.0, 0.0, 0.0, 0.33062499999999995, 0.0, 0.0, 0.0, 0.7464959999999999]
position_covariance_type: 2
---
header: 
  seq: 5576
  stamp: 
    secs: 1557852436
    nsecs:  41836480
  frame_id: "base_link"
status: 
  status: 0
  service: 1
latitude: 40.6335322
longitude: -8.6607077
altitude: 69.5146943121
position_covariance: [0.33062499999999995, 0.0, 0.0, 0.0, 0.33062499999999995, 0.0, 0.0, 0.0, 0.7464959999999999]
position_covariance_type: 2
---
header: 
  seq: 5577
  stamp: 
    secs: 1557852436
    nsecs: 141832896
  frame_id: "base_link"
status: 
  status: 0
  service: 1
latitude: 40.6335321
longitude: -8.6607061
altitude: 69.5036972732
position_covariance: [0.33408399999999994, 0.0, 0.0, 0.0, 0.33408399999999994, 0.0, 0.0, 0.0, 0.755161]
position_covariance_type: 2
---
header: 
  seq: 5578
  stamp: 
    secs: 1557852436
    nsecs: 245830336
  frame_id: "base_link"
status: 
  status: 0
  service: 1
latitude: 40.633532
longitude: -8.6607043
altitude: 69.4967006237
position_covariance: [0.33408399999999994, 0.0, 0.0, 0.0, 0.33408399999999994, 0.0, 0.0, 0.0, 0.755161]
position_covariance_type: 2
---
header: 
  seq: 5579
  stamp: 
    secs: 1557852436
    nsecs: 346825216
  frame_id: "base_link"
status: 
  status: 0
  service: 1
latitude: 40.6335319
longitude: -8.6607025
altitude: 69.4907039742
position_covariance: [0.33756099999999994, 0.0, 0.0, 0.0, 0.33756099999999994, 0.0, 0.0, 0.0, 0.762129]
position_covariance_type: 2
---
header: 
  seq: 5580
  stamp: 
    secs: 1557852436
    nsecs: 446822656
  frame_id: "base_link"
status: 
  status: 0
  service: 1
latitude: 40.6335318
longitude: -8.6607008
altitude: 69.48470713
position_covariance: [0.33756099999999994, 0.0, 0.0, 0.0, 0.33756099999999994, 0.0, 0.0, 0.0, 0.762129]
position_covariance_type: 2
---
header: 
  seq: 5581
  stamp: 
    secs: 1557852436
    nsecs: 543819840
  frame_id: "base_link"
status: 
  status: 0
  service: 1
latitude: 40.6335318
longitude: -8.660699
altitude: 69.4807106347
position_covariance: [0.33988899999999994, 0.0, 0.0, 0.0, 0.33988899999999994, 0.0, 0.0, 0.0, 0.767376]
position_covariance_type: 2
---
header: 
  seq: 5582
  stamp: 
    secs: 1557852436
    nsecs: 643814464
  frame_id: "base_link"
status: 
  status: 0
  service: 1
latitude: 40.6335318
longitude: -8.6606972
altitude: 69.4777141394
position_covariance: [0.33988899999999994, 0.0, 0.0, 0.0, 0.33988899999999994, 0.0, 0.0, 0.0, 0.767376]
position_covariance_type: 2
---
header: 
  seq: 5583
  stamp: 
    secs: 1557852436
    nsecs: 743811648
  frame_id: "base_link"
status: 
  status: 0
  service: 1
latitude: 40.633532
longitude: -8.6606953
altitude: 69.4767181472
position_covariance: [0.343396, 0.0, 0.0, 0.0, 0.343396, 0.0, 0.0, 0.0, 0.772641]
position_covariance_type: 2
---
header: 
  seq: 5584
  stamp: 
    secs: 1557852436
    nsecs: 840807808
  frame_id: "base_link"
status: 
  status: 0
  service: 1
latitude: 40.6335322
longitude: -8.6606934
altitude: 69.4737221549
position_covariance: [0.343396, 0.0, 0.0, 0.0, 0.343396, 0.0, 0.0, 0.0, 0.772641]
position_covariance_type: 2
---
header: 
  seq: 5585
  stamp: 
    secs: 1557852436
    nsecs: 944805504
  frame_id: "base_link"
status: 
  status: 0
  service: 1
latitude: 40.6335325
longitude: -8.6606914
altitude: 69.4687265116
position_covariance: [0.34574399999999994, 0.0, 0.0, 0.0, 0.34574399999999994, 0.0, 0.0, 0.0, 0.779689]
position_covariance_type: 2
---
header: 
  seq: 5586
  stamp: 
    secs: 1557852437
    nsecs:  40801664
  frame_id: "base_link"
status: 
  status: 0
  service: 1
latitude: 40.6335329
longitude: -8.6606895
altitude: 69.4667308277
position_covariance: [0.34574399999999994, 0.0, 0.0, 0.0, 0.34574399999999994, 0.0, 0.0, 0.0, 0.779689]
position_covariance_type: 2
---
header: 
  seq: 5587
  stamp: 
    secs: 1557852437
    nsecs: 144799872
  frame_id: "base_link"
status: 
  status: 0
  service: 1
latitude: 40.6335333
longitude: -8.6606873
altitude: 69.466735728
position_covariance: [0.35046399999999994, 0.0, 0.0, 0.0, 0.35046399999999994, 0.0, 0.0, 0.0, 0.786769]
position_covariance_type: 2
---
header: 
  seq: 5588
  stamp: 
    secs: 1557852437
    nsecs: 245798080
  frame_id: "base_link"
status: 
  status: 0
  service: 1
latitude: 40.6335338
longitude: -8.6606853
altitude: 69.463740393
position_covariance: [0.35046399999999994, 0.0, 0.0, 0.0, 0.35046399999999994, 0.0, 0.0, 0.0, 0.786769]
position_covariance_type: 2
---
header: 
  seq: 5589
  stamp: 
    secs: 1557852437
    nsecs: 341793728
  frame_id: "base_link"
status: 
  status: 0
  service: 1
latitude: 40.6335342
longitude: -8.6606833
altitude: 69.4607449039
position_covariance: [0.356409, 0.0, 0.0, 0.0, 0.356409, 0.0, 0.0, 0.0, 0.7938810000000001]
position_covariance_type: 2
---
header: 
  seq: 5590
  stamp: 
    secs: 1557852437
    nsecs: 441791168
  frame_id: "base_link"
status: 
  status: 0
  service: 1
latitude: 40.6335347
longitude: -8.6606812
altitude: 69.4577497636
position_covariance: [0.356409, 0.0, 0.0, 0.0, 0.356409, 0.0, 0.0, 0.0, 0.7938810000000001]
position_covariance_type: 2
---
header: 
  seq: 5591
  stamp: 
    secs: 1557852437
    nsecs: 541790400
  frame_id: "base_link"
status: 
  status: 0
  service: 1
latitude: 40.6335352
longitude: -8.660679
altitude: 69.457754818
position_covariance: [0.361201, 0.0, 0.0, 0.0, 0.361201, 0.0, 0.0, 0.0, 0.8028160000000001]
position_covariance_type: 2
---
header: 
  seq: 5592
  stamp: 
    secs: 1557852437
    nsecs: 642787584
  frame_id: "base_link"
status: 
  status: 0
  service: 1
latitude: 40.6335357
longitude: -8.6606769
altitude: 69.4617596777
position_covariance: [0.361201, 0.0, 0.0, 0.0, 0.361201, 0.0, 0.0, 0.0, 0.8028160000000001]
position_covariance_type: 2
---
header: 
  seq: 5593
  stamp: 
    secs: 1557852437
    nsecs: 742788096
  frame_id: "base_link"
status: 
  status: 0
  service: 1
latitude: 40.6335363
longitude: -8.6606747
altitude: 69.4657648863
position_covariance: [0.366025, 0.0, 0.0, 0.0, 0.366025, 0.0, 0.0, 0.0, 0.81]
position_covariance_type: 2
---
header: 
  seq: 5594
  stamp: 
    secs: 1557852437
    nsecs: 842785536
  frame_id: "base_link"
status: 
  status: 0
  service: 1
latitude: 40.6335368
longitude: -8.6606725
altitude: 69.4707699407
position_covariance: [0.366025, 0.0, 0.0, 0.0, 0.366025, 0.0, 0.0, 0.0, 0.81]
position_covariance_type: 2
---
header: 
  seq: 5595
  stamp: 
    secs: 1557852437
    nsecs: 942785280
  frame_id: "base_link"
status: 
  status: 0
  service: 1
latitude: 40.6335373
longitude: -8.6606702
altitude: 69.4747751898
position_covariance: [0.37088099999999996, 0.0, 0.0, 0.0, 0.37088099999999996, 0.0, 0.0, 0.0, 0.815409]
position_covariance_type: 2
---
header: 
  seq: 5596
  stamp: 
    secs: 1557852438
    nsecs:  43783232
  frame_id: "base_link"
status: 
  status: 0
  service: 1
latitude: 40.6335379
longitude: -8.660668
altitude: 69.4777803984
position_covariance: [0.37088099999999996, 0.0, 0.0, 0.0, 0.37088099999999996, 0.0, 0.0, 0.0, 0.815409]
position_covariance_type: 2
---
header: 
  seq: 5597
  stamp: 
    secs: 1557852438
    nsecs: 143781184
  frame_id: "base_link"
status: 
  status: 0
  service: 1
latitude: 40.6335384
longitude: -8.6606658
altitude: 69.4797854527
position_covariance: [0.374544, 0.0, 0.0, 0.0, 0.374544, 0.0, 0.0, 0.0, 0.820836]
position_covariance_type: 2
---
header: 
  seq: 5598
  stamp: 
    secs: 1557852438
    nsecs: 240779392
  frame_id: "base_link"
status: 
  status: 0
  service: 1
latitude: 40.6335389
longitude: -8.6606636
altitude: 69.4817905071
position_covariance: [0.374544, 0.0, 0.0, 0.0, 0.374544, 0.0, 0.0, 0.0, 0.820836]
position_covariance_type: 2
---
header: 
  seq: 5599
  stamp: 
    secs: 1557852438
    nsecs: 344777344
  frame_id: "base_link"
status: 
  status: 0
  service: 1
latitude: 40.6335395
longitude: -8.6606613
altitude: 69.4837959104
position_covariance: [0.378225, 0.0, 0.0, 0.0, 0.378225, 0.0, 0.0, 0.0, 0.826281]
position_covariance_type: 2
---
header: 
  seq: 5600
  stamp: 
    secs: 1557852438
    nsecs: 440772992
  frame_id: "base_link"
status: 
  status: 0
  service: 1
latitude: 40.6335399
longitude: -8.6606591
altitude: 69.4868008105
position_covariance: [0.378225, 0.0, 0.0, 0.0, 0.378225, 0.0, 0.0, 0.0, 0.826281]
position_covariance_type: 2
---
header: 
  seq: 5601
  stamp: 
    secs: 1557852438
    nsecs: 544770432
  frame_id: "base_link"
status: 
  status: 0
  service: 1
latitude: 40.6335405
longitude: -8.6606568
altitude: 69.4878062137
position_covariance: [0.380689, 0.0, 0.0, 0.0, 0.380689, 0.0, 0.0, 0.0, 0.831744]
position_covariance_type: 2
---
header: 
  seq: 5602
  stamp: 
    secs: 1557852438
    nsecs: 645767872
  frame_id: "base_link"
status: 
  status: 0
  service: 1
latitude: 40.633541
longitude: -8.6606545
altitude: 69.4898114628
position_covariance: [0.380689, 0.0, 0.0, 0.0, 0.380689, 0.0, 0.0, 0.0, 0.831744]
position_covariance_type: 2
---
header: 
  seq: 5603
  stamp: 
    secs: 1557852438
    nsecs: 741766336
  frame_id: "base_link"
status: 
  status: 0
  service: 1
latitude: 40.6335415
longitude: -8.6606523
altitude: 69.4918165171
position_covariance: [0.3844, 0.0, 0.0, 0.0, 0.3844, 0.0, 0.0, 0.0, 0.8372250000000001]
position_covariance_type: 2
---
header: 
  seq: 5604
  stamp: 
    secs: 1557852438
    nsecs: 841763520
  frame_id: "base_link"
status: 
  status: 0
  service: 1
latitude: 40.633542
longitude: -8.66065
altitude: 69.4918217661
position_covariance: [0.3844, 0.0, 0.0, 0.0, 0.3844, 0.0, 0.0, 0.0, 0.8372250000000001]
position_covariance_type: 2
---
header: 
  seq: 5605
  stamp: 
    secs: 1557852438
    nsecs: 941761472
  frame_id: "base_link"
status: 
  status: 0
  service: 1
latitude: 40.6335425
longitude: -8.6606477
altitude: 69.4928270151
position_covariance: [0.388129, 0.0, 0.0, 0.0, 0.388129, 0.0, 0.0, 0.0, 0.842724]
position_covariance_type: 2
---
header: 
  seq: 5606
  stamp: 
    secs: 1557852439
    nsecs:  46759424
  frame_id: "base_link"
status: 
  status: 0
  service: 1
latitude: 40.6335431
longitude: -8.6606453
altitude: 69.495832613
position_covariance: [0.388129, 0.0, 0.0, 0.0, 0.388129, 0.0, 0.0, 0.0, 0.842724]
position_covariance_type: 2
---
header: 
  seq: 5607
  stamp: 
