header: 
  seq: 4545
  stamp: 
    secs: 1557852332
    nsecs: 945842176
  frame_id: "base_link"
status: 
  status: 0
  service: 1
latitude: 40.6338934
longitude: -8.6602628
altitude: 63.0801172828
position_covariance: [0.43692100000000006, 0.0, 0.0, 0.0, 0.43692100000000006, 0.0, 0.0, 0.0, 0.919681]
position_covariance_type: 2
---
header: 
  seq: 4546
  stamp: 
    secs: 1557852333
    nsecs:  48838848
  frame_id: "base_link"
status: 
  status: 0
  service: 1
latitude: 40.6338934
longitude: -8.6602628
altitude: 63.0791172828
position_covariance: [0.43692100000000006, 0.0, 0.0, 0.0, 0.43692100000000006, 0.0, 0.0, 0.0, 0.919681]
position_covariance_type: 2
---
header: 
  seq: 4547
  stamp: 
    secs: 1557852333
    nsecs: 145838848
  frame_id: "base_link"
status: 
  status: 0
  service: 1
latitude: 40.6338934
longitude: -8.6602628
altitude: 63.0781172828
position_covariance: [0.44488900000000003, 0.0, 0.0, 0.0, 0.44488900000000003, 0.0, 0.0, 0.0, 0.9292959999999999]
position_covariance_type: 2
---
header: 
  seq: 4548
  stamp: 
    secs: 1557852333
    nsecs: 246837312
  frame_id: "base_link"
status: 
  status: 0
  service: 1
latitude: 40.6338934
longitude: -8.6602627
altitude: 63.0741174774
position_covariance: [0.44488900000000003, 0.0, 0.0, 0.0, 0.44488900000000003, 0.0, 0.0, 0.0, 0.9292959999999999]
position_covariance_type: 2
---
header: 
  seq: 4549
  stamp: 
    secs: 1557852333
    nsecs: 346835264
  frame_id: "base_link"
status: 
  status: 0
  service: 1
latitude: 40.6338935
longitude: -8.6602627
altitude: 63.0701176316
position_covariance: [0.45427600000000007, 0.0, 0.0, 0.0, 0.45427600000000007, 0.0, 0.0, 0.0, 0.9389609999999999]
position_covariance_type: 2
---
header: 
  seq: 4550
  stamp: 
    secs: 1557852333
    nsecs: 446833216
  frame_id: "base_link"
status: 
  status: 0
  service: 1
latitude: 40.6338935
longitude: -8.6602627
altitude: 63.0671176316
position_covariance: [0.45427600000000007, 0.0, 0.0, 0.0, 0.45427600000000007, 0.0, 0.0, 0.0, 0.9389609999999999]
position_covariance_type: 2
---
header: 
  seq: 4551
  stamp: 
    secs: 1557852333
    nsecs: 547831168
  frame_id: "base_link"
status: 
  status: 0
  service: 1
latitude: 40.6338935
longitude: -8.6602626
altitude: 63.0661178262
position_covariance: [0.4610410000000001, 0.0, 0.0, 0.0, 0.4610410000000001, 0.0, 0.0, 0.0, 0.944784]
position_covariance_type: 2
---
header: 
  seq: 4552
  stamp: 
    secs: 1557852333
    nsecs: 643828864
  frame_id: "base_link"
status: 
  status: 0
  service: 1
latitude: 40.6338935
longitude: -8.6602626
altitude: 63.0681178262
position_covariance: [0.4610410000000001, 0.0, 0.0, 0.0, 0.4610410000000001, 0.0, 0.0, 0.0, 0.944784]
position_covariance_type: 2
---
header: 
  seq: 4553
  stamp: 
    secs: 1557852333
    nsecs: 747827840
  frame_id: "base_link"
status: 
  status: 0
  service: 1
latitude: 40.6338935
longitude: -8.6602626
altitude: 63.0721178262
position_covariance: [0.4610410000000001, 0.0, 0.0, 0.0, 0.4610410000000001, 0.0, 0.0, 0.0, 0.937024]
position_covariance_type: 2
---
header: 
  seq: 4554
  stamp: 
    secs: 1557852333
    nsecs: 844825024
  frame_id: "base_link"
status: 
  status: 0
  service: 1
latitude: 40.6338935
longitude: -8.6602625
altitude: 63.0731180209
position_covariance: [0.4610410000000001, 0.0, 0.0, 0.0, 0.4610410000000001, 0.0, 0.0, 0.0, 0.937024]
position_covariance_type: 2
---
header: 
  seq: 4555
  stamp: 
    secs: 1557852333
    nsecs: 944822208
  frame_id: "base_link"
status: 
  status: 0
  service: 1
latitude: 40.6338935
longitude: -8.6602625
altitude: 63.0731180209
position_covariance: [0.45697600000000005, 0.0, 0.0, 0.0, 0.45697600000000005, 0.0, 0.0, 0.0, 0.9292959999999999]
position_covariance_type: 2
---
header: 
  seq: 4556
  stamp: 
    secs: 1557852334
    nsecs:  44818880
  frame_id: "base_link"
status: 
  status: 0
  service: 1
latitude: 40.6338936
longitude: -8.6602624
altitude: 63.0731183696
position_covariance: [0.45697600000000005, 0.0, 0.0, 0.0, 0.45697600000000005, 0.0, 0.0, 0.0, 0.9292959999999999]
position_covariance_type: 2
---
header: 
  seq: 4557
  stamp: 
    secs: 1557852334
    nsecs: 145815040
  frame_id: "base_link"
status: 
  status: 0
  service: 1
latitude: 40.6338936
longitude: -8.6602624
altitude: 63.0741183696
position_covariance: [0.45024100000000006, 0.0, 0.0, 0.0, 0.45024100000000006, 0.0, 0.0, 0.0, 0.9177639999999999]
position_covariance_type: 2
---
header: 
  seq: 4558
  stamp: 
    secs: 1557852334
    nsecs: 248810944
  frame_id: "base_link"
status: 
  status: 0
  service: 1
latitude: 40.6338936
longitude: -8.6602624
altitude: 63.0721183696
position_covariance: [0.45024100000000006, 0.0, 0.0, 0.0, 0.45024100000000006, 0.0, 0.0, 0.0, 0.9177639999999999]
position_covariance_type: 2
---
header: 
  seq: 4559
  stamp: 
    secs: 1557852334
    nsecs: 348806848
  frame_id: "base_link"
status: 
  status: 0
  service: 1
latitude: 40.6338936
longitude: -8.6602623
altitude: 63.0691185643
position_covariance: [0.44355600000000006, 0.0, 0.0, 0.0, 0.44355600000000006, 0.0, 0.0, 0.0, 0.9082089999999999]
position_covariance_type: 2
---
header: 
  seq: 4560
  stamp: 
    secs: 1557852334
    nsecs: 449805312
  frame_id: "base_link"
status: 
  status: 0
  service: 1
latitude: 40.6338936
longitude: -8.6602623
altitude: 63.0661185643
position_covariance: [0.44355600000000006, 0.0, 0.0, 0.0, 0.44355600000000006, 0.0, 0.0, 0.0, 0.9082089999999999]
position_covariance_type: 2
---
header: 
  seq: 4561
  stamp: 
    secs: 1557852334
    nsecs: 546804032
  frame_id: "base_link"
status: 
  status: 0
  service: 1
latitude: 40.6338937
longitude: -8.6602622
altitude: 63.0601189131
position_covariance: [0.43560000000000004, 0.0, 0.0, 0.0, 0.43560000000000004, 0.0, 0.0, 0.0, 0.8968089999999999]
position_covariance_type: 2
---
header: 
  seq: 4562
  stamp: 
    secs: 1557852334
    nsecs: 646801728
  frame_id: "base_link"
status: 
  status: 0
  service: 1
latitude: 40.6338937
longitude: -8.6602622
altitude: 63.0511189131
position_covariance: [0.43560000000000004, 0.0, 0.0, 0.0, 0.43560000000000004, 0.0, 0.0, 0.0, 0.8968089999999999]
position_covariance_type: 2
---
header: 
  seq: 4563
  stamp: 
    secs: 1557852334
    nsecs: 743800704
  frame_id: "base_link"
status: 
  status: 0
  service: 1
latitude: 40.6338937
longitude: -8.6602621
altitude: 63.0411191077
position_covariance: [0.42902500000000005, 0.0, 0.0, 0.0, 0.42902500000000005, 0.0, 0.0, 0.0, 0.8873639999999999]
position_covariance_type: 2
---
header: 
  seq: 4564
  stamp: 
    secs: 1557852334
    nsecs: 843798912
  frame_id: "base_link"
status: 
  status: 0
  service: 1
latitude: 40.6338937
longitude: -8.660262
altitude: 63.0291193023
position_covariance: [0.42902500000000005, 0.0, 0.0, 0.0, 0.42902500000000005, 0.0, 0.0, 0.0, 0.8873639999999999]
position_covariance_type: 2
---
header: 
  seq: 4565
  stamp: 
    secs: 1557852334
    nsecs: 947796864
  frame_id: "base_link"
status: 
  status: 0
  service: 1
latitude: 40.6338938
longitude: -8.660262
altitude: 63.0151194565
position_covariance: [0.42250000000000004, 0.0, 0.0, 0.0, 0.42250000000000004, 0.0, 0.0, 0.0, 0.8779690000000001]
position_covariance_type: 2
---
header: 
  seq: 4566
  stamp: 
    secs: 1557852335
    nsecs:  48795584
  frame_id: "base_link"
status: 
  status: 0
  service: 1
latitude: 40.6338938
longitude: -8.6602619
altitude: 63.0001196511
position_covariance: [0.42250000000000004, 0.0, 0.0, 0.0, 0.42250000000000004, 0.0, 0.0, 0.0, 0.8779690000000001]
position_covariance_type: 2
---
header: 
  seq: 4567
  stamp: 
    secs: 1557852335
    nsecs: 144792768
  frame_id: "base_link"
status: 
  status: 0
  service: 1
latitude: 40.6338938
longitude: -8.6602618
altitude: 62.9791198457
position_covariance: [0.417316, 0.0, 0.0, 0.0, 0.417316, 0.0, 0.0, 0.0, 0.8686240000000001]
position_covariance_type: 2
---
header: 
  seq: 4568
  stamp: 
    secs: 1557852335
    nsecs: 244790464
  frame_id: "base_link"
status: 
  status: 0
  service: 1
latitude: 40.6338938
longitude: -8.6602618
altitude: 62.9511198457
position_covariance: [0.417316, 0.0, 0.0, 0.0, 0.417316, 0.0, 0.0, 0.0, 0.8686240000000001]
position_covariance_type: 2
---
header: 
  seq: 4569
  stamp: 
    secs: 1557852335
    nsecs: 344786624
  frame_id: "base_link"
status: 
  status: 0
  service: 1
latitude: 40.6338938
longitude: -8.6602617
altitude: 62.9101200404
position_covariance: [0.410881, 0.0, 0.0, 0.0, 0.410881, 0.0, 0.0, 0.0, 0.8593290000000001]
position_covariance_type: 2
---
header: 
  seq: 4570
  stamp: 
    secs: 1557852335
    nsecs: 449783808
  frame_id: "base_link"
status: 
  status: 0
  service: 1
latitude: 40.6338938
longitude: -8.6602616
altitude: 62.861120235
position_covariance: [0.410881, 0.0, 0.0, 0.0, 0.410881, 0.0, 0.0, 0.0, 0.8593290000000001]
position_covariance_type: 2
---
header: 
  seq: 4571
  stamp: 
    secs: 1557852335
    nsecs: 545779456
  frame_id: "base_link"
status: 
  status: 0
  service: 1
latitude: 40.6338938
longitude: -8.6602615
altitude: 62.8091204296
position_covariance: [0.405769, 0.0, 0.0, 0.0, 0.405769, 0.0, 0.0, 0.0, 0.851929]
position_covariance_type: 2
---
header: 
  seq: 4572
  stamp: 
    secs: 1557852335
    nsecs: 649778176
  frame_id: "base_link"
status: 
  status: 0
  service: 1
latitude: 40.6338938
longitude: -8.6602614
altitude: 62.7511206242
position_covariance: [0.405769, 0.0, 0.0, 0.0, 0.405769, 0.0, 0.0, 0.0, 0.851929]
position_covariance_type: 2
---
header: 
  seq: 4573
  stamp: 
    secs: 1557852335
    nsecs: 746774336
  frame_id: "base_link"
status: 
  status: 0
  service: 1
latitude: 40.6338938
longitude: -8.6602614
altitude: 62.6931206242
position_covariance: [0.399424, 0.0, 0.0, 0.0, 0.399424, 0.0, 0.0, 0.0, 0.842724]
position_covariance_type: 2
---
header: 
  seq: 4574
  stamp: 
    secs: 1557852335
    nsecs: 846772032
  frame_id: "base_link"
status: 
  status: 0
  service: 1
latitude: 40.6338938
longitude: -8.6602613
altitude: 62.6171208189
position_covariance: [0.399424, 0.0, 0.0, 0.0, 0.399424, 0.0, 0.0, 0.0, 0.842724]
position_covariance_type: 2
---
header: 
  seq: 4575
  stamp: 
    secs: 1557852335
    nsecs: 946769984
  frame_id: "base_link"
status: 
  status: 0
  service: 1
latitude: 40.6338938
longitude: -8.6602612
altitude: 62.5311210135
position_covariance: [0.395641, 0.0, 0.0, 0.0, 0.395641, 0.0, 0.0, 0.0, 0.835396]
position_covariance_type: 2
---
header: 
  seq: 4576
  stamp: 
    secs: 1557852336
    nsecs:  43767168
  frame_id: "base_link"
status: 
  status: 0
  service: 1
latitude: 40.6338938
longitude: -8.6602611
altitude: 62.4341212081
position_covariance: [0.395641, 0.0, 0.0, 0.0, 0.395641, 0.0, 0.0, 0.0, 0.835396]
position_covariance_type: 2
---
header: 
  seq: 4577
  stamp: 
    secs: 1557852336
    nsecs: 147765888
  frame_id: "base_link"
status: 
  status: 0
  service: 1
latitude: 40.6338938
longitude: -8.660261
altitude: 62.3181214027
position_covariance: [0.389376, 0.0, 0.0, 0.0, 0.389376, 0.0, 0.0, 0.0, 0.8226490000000001]
position_covariance_type: 2
---
header: 
  seq: 4578
  stamp: 
    secs: 1557852336
    nsecs: 243763072
  frame_id: "base_link"
status: 
  status: 0
  service: 1
latitude: 40.6338938
longitude: -8.6602609
altitude: 62.2021215974
position_covariance: [0.389376, 0.0, 0.0, 0.0, 0.389376, 0.0, 0.0, 0.0, 0.8226490000000001]
position_covariance_type: 2
---
header: 
  seq: 4579
  stamp: 
    secs: 1557852336
    nsecs: 344757952
  frame_id: "base_link"
status: 
  status: 0
  service: 1
latitude: 40.6338938
longitude: -8.6602608
altitude: 62.062121792
position_covariance: [0.383161, 0.0, 0.0, 0.0, 0.383161, 0.0, 0.0, 0.0, 0.811801]
position_covariance_type: 2
---
header: 
  seq: 4580
  stamp: 
    secs: 1557852336
    nsecs: 448754112
  frame_id: "base_link"
status: 
  status: 0
  service: 1
latitude: 40.6338938
longitude: -8.6602608
altitude: 61.940121792
position_covariance: [0.383161, 0.0, 0.0, 0.0, 0.383161, 0.0, 0.0, 0.0, 0.811801]
position_covariance_type: 2
---
header: 
  seq: 4581
  stamp: 
    secs: 1557852336
    nsecs: 544751552
  frame_id: "base_link"
status: 
  status: 0
  service: 1
latitude: 40.6338937
longitude: -8.6602607
altitude: 61.8281218325
position_covariance: [0.378225, 0.0, 0.0, 0.0, 0.378225, 0.0, 0.0, 0.0, 0.7992360000000001]
position_covariance_type: 2
---
header: 
  seq: 4582
  stamp: 
    secs: 1557852336
    nsecs: 644747712
  frame_id: "base_link"
status: 
  status: 0
  service: 1
latitude: 40.6338936
longitude: -8.6602606
altitude: 61.7271218729
position_covariance: [0.378225, 0.0, 0.0, 0.0, 0.378225, 0.0, 0.0, 0.0, 0.7992360000000001]
position_covariance_type: 2
---
header: 
  seq: 4583
  stamp: 
    secs: 1557852336
    nsecs: 745745152
  frame_id: "base_link"
status: 
  status: 0
  service: 1
latitude: 40.6338935
longitude: -8.6602605
altitude: 61.6531219134
position_covariance: [0.374544, 0.0, 0.0, 0.0, 0.374544, 0.0, 0.0, 0.0, 0.790321]
position_covariance_type: 2
---
header: 
  seq: 4584
  stamp: 
    secs: 1557852336
    nsecs: 849743872
  frame_id: "base_link"
status: 
  status: 0
  service: 1
latitude: 40.6338934
longitude: -8.6602604
altitude: 61.6031219538
position_covariance: [0.374544, 0.0, 0.0, 0.0, 0.374544, 0.0, 0.0, 0.0, 0.790321]
position_covariance_type: 2
---
header: 
  seq: 4585
  stamp: 
    secs: 1557852336
    nsecs: 945740032
  frame_id: "base_link"
status: 
  status: 0
  service: 1
latitude: 40.6338932
longitude: -8.6602603
altitude: 61.6071218401
position_covariance: [0.37088099999999996, 0.0, 0.0, 0.0, 0.37088099999999996, 0.0, 0.0, 0.0, 0.7832250000000001]
position_covariance_type: 2
---
header: 
  seq: 4586
  stamp: 
    secs: 1557852337
    nsecs:  45738752
  frame_id: "base_link"
status: 
  status: 0
  service: 1
latitude: 40.633893
longitude: -8.6602602
altitude: 61.6961217264
position_covariance: [0.37088099999999996, 0.0, 0.0, 0.0, 0.37088099999999996, 0.0, 0.0, 0.0, 0.7832250000000001]
position_covariance_type: 2
---
header: 
  seq: 4587
  stamp: 
    secs: 1557852337
    nsecs: 145736448
  frame_id: "base_link"
status: 
  status: 0
  service: 1
latitude: 40.6338928
longitude: -8.6602601
altitude: 61.8641216127
position_covariance: [0.367236, 0.0, 0.0, 0.0, 0.367236, 0.0, 0.0, 0.0, 0.7779240000000001]
position_covariance_type: 2
---
header: 
  seq: 4588
  stamp: 
    secs: 1557852337
    nsecs: 245733888
  frame_id: "base_link"
status: 
  status: 0
  service: 1
latitude: 40.6338926
longitude: -8.6602599
altitude: 62.0781216937
position_covariance: [0.367236, 0.0, 0.0, 0.0, 0.367236, 0.0, 0.0, 0.0, 0.7779240000000001]
position_covariance_type: 2
---
header: 
  seq: 4589
  stamp: 
    secs: 1557852337
    nsecs: 346731584
  frame_id: "base_link"
status: 
  status: 0
  service: 1
latitude: 40.6338923
longitude: -8.6602596
altitude: 62.3031218151
position_covariance: [0.36360899999999996, 0.0, 0.0, 0.0, 0.36360899999999996, 0.0, 0.0, 0.0, 0.770884]
position_covariance_type: 2
---
header: 
  seq: 4590
  stamp: 
    secs: 1557852337
    nsecs: 446728512
  frame_id: "base_link"
status: 
  status: 0
  service: 1
latitude: 40.633892
longitude: -8.6602594
altitude: 62.5311217418
position_covariance: [0.36360899999999996, 0.0, 0.0, 0.0, 0.36360899999999996, 0.0, 0.0, 0.0, 0.770884]
position_covariance_type: 2
---
header: 
  seq: 4591
  stamp: 
    secs: 1557852337
    nsecs: 546727232
  frame_id: "base_link"
status: 
  status: 0
  service: 1
latitude: 40.6338918
longitude: -8.6602591
altitude: 62.7521220174
position_covariance: [0.358801, 0.0, 0.0, 0.0, 0.358801, 0.0, 0.0, 0.0, 0.763876]
position_covariance_type: 2
---
header: 
  seq: 4592
  stamp: 
    secs: 1557852337
    nsecs: 643725440
  frame_id: "base_link"
status: 
  status: 0
  service: 1
latitude: 40.6338916
longitude: -8.6602586
altitude: 62.9681226822
position_covariance: [0.358801, 0.0, 0.0, 0.0, 0.358801, 0.0, 0.0, 0.0, 0.763876]
position_covariance_type: 2
---
header: 
  seq: 4593
  stamp: 
    secs: 1557852337
    nsecs: 747723648
  frame_id: "base_link"
status: 
  status: 0
  service: 1
latitude: 40.6338915
longitude: -8.6602582
altitude: 63.1921233065
position_covariance: [0.357604, 0.0, 0.0, 0.0, 0.357604, 0.0, 0.0, 0.0, 0.760384]
position_covariance_type: 2
---
header: 
  seq: 4594
  stamp: 
    secs: 1557852337
    nsecs: 843721856
  frame_id: "base_link"
status: 
  status: 0
  service: 1
latitude: 40.6338915
longitude: -8.6602577
altitude: 63.3921242796
position_covariance: [0.357604, 0.0, 0.0, 0.0, 0.357604, 0.0, 0.0, 0.0, 0.760384]
position_covariance_type: 2
---
header: 
  seq: 4595
  stamp: 
    secs: 1557852337
    nsecs: 947720064
  frame_id: "base_link"
status: 
  status: 0
  service: 1
latitude: 40.6338915
longitude: -8.6602572
altitude: 63.5951252528
position_covariance: [0.355216, 0.0, 0.0, 0.0, 0.355216, 0.0, 0.0, 0.0, 0.7516889999999999]
position_covariance_type: 2
---
header: 
  seq: 4596
  stamp: 
    secs: 1557852338
    nsecs:  44715968
  frame_id: "base_link"
status: 
  status: 0
  service: 1
latitude: 40.6338915
longitude: -8.6602566
altitude: 63.7791264205
position_covariance: [0.355216, 0.0, 0.0, 0.0, 0.355216, 0.0, 0.0, 0.0, 0.7516889999999999]
position_covariance_type: 2
---
header: 
  seq: 4597
  stamp: 
    secs: 1557852338
    nsecs: 144713664
  frame_id: "base_link"
status: 
  status: 0
  service: 1
latitude: 40.6338916
longitude: -8.660256
altitude: 63.9371277424
position_covariance: [0.354025, 0.0, 0.0, 0.0, 0.354025, 0.0, 0.0, 0.0, 0.744769]
position_covariance_type: 2
---
header: 
  seq: 4598
  stamp: 
    secs: 1557852338
    nsecs: 244709824
  frame_id: "base_link"
status: 
  status: 0
  service: 1
latitude: 40.6338917
longitude: -8.6602553
altitude: 64.085129259
position_covariance: [0.354025, 0.0, 0.0, 0.0, 0.354025, 0.0, 0.0, 0.0, 0.744769]
position_covariance_type: 2
---
header: 
  seq: 4599
  stamp: 
    secs: 1557852338
    nsecs: 349706752
  frame_id: "base_link"
status: 
  status: 0
  service: 1
latitude: 40.6338919
longitude: -8.6602546
altitude: 64.2151309297
position_covariance: [0.352836, 0.0, 0.0, 0.0, 0.352836, 0.0, 0.0, 0.0, 0.7361639999999999]
position_covariance_type: 2
---
header: 
  seq: 4600
  stamp: 
    secs: 1557852338
    nsecs: 449704192
  frame_id: "base_link"
status: 
  status: 0
  service: 1
latitude: 40.6338921
longitude: -8.6602539
altitude: 64.3191326004
position_covariance: [0.352836, 0.0, 0.0, 0.0, 0.352836, 0.0, 0.0, 0.0, 0.7361639999999999]
position_covariance_type: 2
---
header: 
  seq: 4601
  stamp: 
    secs: 1557852338
    nsecs: 549700864
  frame_id: "base_link"
status: 
  status: 0
  service: 1
latitude: 40.6338923
longitude: -8.6602532
altitude: 64.4131342711
position_covariance: [0.352836, 0.0, 0.0, 0.0, 0.352836, 0.0, 0.0, 0.0, 0.729316]
position_covariance_type: 2
---
header: 
  seq: 4602
  stamp: 
    secs: 1557852338
    nsecs: 645698048
  frame_id: "base_link"
status: 
  status: 0
  service: 1
latitude: 40.6338925
longitude: -8.6602525
altitude: 64.4831359418
position_covariance: [0.352836, 0.0, 0.0, 0.0, 0.352836, 0.0, 0.0, 0.0, 0.729316]
position_covariance_type: 2
---
header: 
  seq: 4603
  stamp: 
    secs: 1557852338
    nsecs: 745695744
  frame_id: "base_link"
status: 
  status: 0
  service: 1
latitude: 40.6338926
longitude: -8.6602517
altitude: 64.5361376529
position_covariance: [0.352836, 0.0, 0.0, 0.0, 0.352836, 0.0, 0.0, 0.0, 0.724201]
position_covariance_type: 2
---
header: 
  seq: 4604
  stamp: 
    secs: 1557852338
    nsecs: 845694208
  frame_id: "base_link"
status: 
  status: 0
  service: 1
latitude: 40.6338928
longitude: -8.660251
altitude: 64.5791393236
position_covariance: [0.352836, 0.0, 0.0, 0.0, 0.352836, 0.0, 0.0, 0.0, 0.724201]
position_covariance_type: 2
---
header: 
  seq: 4605
  stamp: 
    secs: 1557852338
    nsecs: 945691904
  frame_id: "base_link"
status: 
  status: 0
  service: 1
latitude: 40.633893
longitude: -8.6602502
altitude: 64.593141189
position_covariance: [0.352836, 0.0, 0.0, 0.0, 0.352836, 0.0, 0.0, 0.0, 0.717409]
position_covariance_type: 2
---
header: 
  seq: 4606
  stamp: 
    secs: 1557852339
    nsecs:  46690112
  frame_id: "base_link"
status: 
  status: 0
  service: 1
latitude: 40.6338932
longitude: -8.6602494
altitude: 64.5831430543
position_covariance: [0.352836, 0.0, 0.0, 0.0, 0.352836, 0.0, 0.0, 0.0, 0.717409]
position_covariance_type: 2
---
header: 
  seq: 4607
  stamp: 
    secs: 1557852339
    nsecs: 146687552
  frame_id: "base_link"
status: 
  status: 0
  service: 1
latitude: 40.6338934
longitude: -8.6602487
altitude: 64.543144725
position_covariance: [0.351649, 0.0, 0.0, 0.0, 0.351649, 0.0, 0.0, 0.0, 0.712336]
position_covariance_type: 2
---
header: 
  seq: 4608
  stamp: 
    secs: 1557852339
    nsecs: 246684992
  frame_id: "base_link"
status: 
  status: 0
  service: 1
latitude: 40.6338936
longitude: -8.6602479
altitude: 64.4911465903
position_covariance: [0.351649, 0.0, 0.0, 0.0, 0.351649, 0.0, 0.0, 0.0, 0.712336]
position_covariance_type: 2
---
header: 
  seq: 4609
  stamp: 
    secs: 1557852339
    nsecs: 347680896
  frame_id: "base_link"
status: 
  status: 0
  service: 1
latitude: 40.6338937
longitude: -8.6602471
altitude: 64.4351483014
position_covariance: [0.352836, 0.0, 0.0, 0.0, 0.352836, 0.0, 0.0, 0.0, 0.7072809999999999]
position_covariance_type: 2
---
header: 
  seq: 4610
  stamp: 
    secs: 1557852339
    nsecs: 447679616
  frame_id: "base_link"
status: 
  status: 0
  service: 1
latitude: 40.6338939
longitude: -8.6602462
altitude: 64.3831503614
position_covariance: [0.352836, 0.0, 0.0, 0.0, 0.352836, 0.0, 0.0, 0.0, 0.7072809999999999]
position_covariance_type: 2
---
header: 
  seq: 4611
  stamp: 
    secs: 1557852339
    nsecs: 547678336
  frame_id: "base_link"
status: 
  status: 0
  service: 1
latitude: 40.633894
longitude: -8.6602454
altitude: 64.3331520725
position_covariance: [0.351649, 0.0, 0.0, 0.0, 0.351649, 0.0, 0.0, 0.0, 0.700569]
position_covariance_type: 2
---
header: 
  seq: 4612
  stamp: 
    secs: 1557852339
    nsecs: 644677824
  frame_id: "base_link"
status: 
  status: 0
  service: 1
latitude: 40.6338941
longitude: -8.6602445
altitude: 64.2911539783
position_covariance: [0.351649, 0.0, 0.0, 0.0, 0.351649, 0.0, 0.0, 0.0, 0.700569]
position_covariance_type: 2
---
header: 
  seq: 4613
  stamp: 
    secs: 1557852339
    nsecs: 744674240
  frame_id: "base_link"
status: 
  status: 0
  service: 1
latitude: 40.6338942
longitude: -8.6602436
altitude: 64.2591558841
position_covariance: [0.35046399999999994, 0.0, 0.0, 0.0, 0.35046399999999994, 0.0, 0.0, 0.0, 0.695556]
position_covariance_type: 2
---
header: 
  seq: 4614
  stamp: 
    secs: 1557852339
    nsecs: 844670912
  frame_id: "base_link"
status: 
  status: 0
  service: 1
latitude: 40.6338943
longitude: -8.6602427
altitude: 64.2381577899
position_covariance: [0.35046399999999994, 0.0, 0.0, 0.0, 0.35046399999999994, 0.0, 0.0, 0.0, 0.695556]
position_covariance_type: 2
---
header: 
  seq: 4615
  stamp: 
    secs: 1557852339
    nsecs: 944667328
  frame_id: "base_link"
status: 
  status: 0
  service: 1
latitude: 40.6338944
longitude: -8.6602419
altitude: 64.237159501
position_covariance: [0.34928099999999995, 0.0, 0.0, 0.0, 0.34928099999999995, 0.0, 0.0, 0.0, 0.690561]
position_covariance_type: 2
---
header: 
  seq: 4616
  stamp: 
    secs: 1557852340
    nsecs:  48663744
  frame_id: "base_link"
status: 
  status: 0
  service: 1
latitude: 40.6338944
longitude: -8.6602409
altitude: 64.2561614472
position_covariance: [0.34928099999999995, 0.0, 0.0, 0.0, 0.34928099999999995, 0.0, 0.0, 0.0, 0.690561]
position_covariance_type: 2
---
header: 
  seq: 4617
  stamp: 
    secs: 1557852340
    nsecs: 145661440
  frame_id: "base_link"
status: 
  status: 0
  service: 1
latitude: 40.6338944
longitude: -8.6602399
altitude: 64.2951633935
position_covariance: [0.34928099999999995, 0.0, 0.0, 0.0, 0.34928099999999995, 0.0, 0.0, 0.0, 0.692224]
position_covariance_type: 2
---
header: 
  seq: 4618
  stamp: 
    secs: 1557852340
    nsecs: 249658368
  frame_id: "base_link"
status: 
  status: 0
  service: 1
latitude: 40.6338944
longitude: -8.6602389
altitude: 64.3541653397
position_covariance: [0.34928099999999995, 0.0, 0.0, 0.0, 0.34928099999999995, 0.0, 0.0, 0.0, 0.692224]
position_covariance_type: 2
---
header: 
  seq: 4619
  stamp: 
    secs: 1557852340
    nsecs: 346654784
  frame_id: "base_link"
status: 
  status: 0
  service: 1
latitude: 40.6338944
longitude: -8.660238
altitude: 64.4191670913
position_covariance: [0.34809999999999997, 0.0, 0.0, 0.0, 0.34809999999999997, 0.0, 0.0, 0.0, 0.6889]
position_covariance_type: 2
---
header: 
  seq: 4620
  stamp: 
    secs: 1557852340
    nsecs: 446652480
  frame_id: "base_link"
status: 
  status: 0
  service: 1
latitude: 40.6338944
longitude: -8.6602371
altitude: 64.4901688429
position_covariance: [0.34809999999999997, 0.0, 0.0, 0.0, 0.34809999999999997, 0.0, 0.0, 0.0, 0.6889]
position_covariance_type: 2
---
header: 
  seq: 4621
  stamp: 
    secs: 1557852340
    nsecs: 546651456
  frame_id: "base_link"
status: 
  status: 0
  service: 1
latitude: 40.6338944
longitude: -8.6602362
altitude: 64.5621705945
position_covariance: [0.34456899999999996, 0.0, 0.0, 0.0, 0.34456899999999996, 0.0, 0.0, 0.0, 0.6872409999999999]
position_covariance_type: 2
---
header: 
  seq: 4622
  stamp: 
    secs: 1557852340
    nsecs: 643649152
  frame_id: "base_link"
status: 
  status: 0
  service: 1
latitude: 40.6338944
longitude: -8.6602354
altitude: 64.6291721515
position_covariance: [0.34456899999999996, 0.0, 0.0, 0.0, 0.34456899999999996, 0.0, 0.0, 0.0, 0.6872409999999999]
position_covariance_type: 2
---
header: 
  seq: 4623
  stamp: 
    secs: 1557852340
    nsecs: 747646848
  frame_id: "base_link"
status: 
  status: 0
  service: 1
latitude: 40.6338944
longitude: -8.6602345
altitude: 64.6931739031
position_covariance: [0.34222499999999995, 0.0, 0.0, 0.0, 0.34222499999999995, 0.0, 0.0, 0.0, 0.6872409999999999]
position_covariance_type: 2
---
header: 
  seq: 4624
  stamp: 
    secs: 1557852340
    nsecs: 847645056
  frame_id: "base_link"
status: 
  status: 0
  service: 1
latitude: 40.6338945
longitude: -8.6602338
altitude: 64.7391754196
position_covariance: [0.34222499999999995, 0.0, 0.0, 0.0, 0.34222499999999995, 0.0, 0.0, 0.0, 0.6872409999999999]
position_covariance_type: 2
---
header: 
  seq: 4625
  stamp: 
    secs: 1557852340
    nsecs: 944643264
  frame_id: "base_link"
status: 
  status: 0
  service: 1
latitude: 40.6338945
longitude: -8.6602331
altitude: 64.7751767819
position_covariance: [0.34222499999999995, 0.0, 0.0, 0.0, 0.34222499999999995, 0.0, 0.0, 0.0, 0.6872409999999999]
position_covariance_type: 2
---
header: 
  seq: 4626
  stamp: 
    secs: 1557852341
    nsecs:  44641472
  frame_id: "base_link"
status: 
  status: 0
  service: 1
latitude: 40.6338945
longitude: -8.6602324
altitude: 64.8031781443
position_covariance: [0.34222499999999995, 0.0, 0.0, 0.0, 0.34222499999999995, 0.0, 0.0, 0.0, 0.6872409999999999]
position_covariance_type: 2
---
header: 
  seq: 4627
  stamp: 
    secs: 1557852341
    nsecs: 148637888
  frame_id: "base_link"
status: 
  status: 0
  service: 1
latitude: 40.6338945
longitude: -8.6602318
altitude: 64.825179312
position_covariance: [0.34222499999999995, 0.0, 0.0, 0.0, 0.34222499999999995, 0.0, 0.0, 0.0, 0.6839289999999999]
position_covariance_type: 2
---
header: 
  seq: 4628
  stamp: 
    secs: 1557852341
    nsecs: 248635840
  frame_id: "base_link"
status: 
  status: 0
  service: 1
latitude: 40.6338946
longitude: -8.6602313
altitude: 64.8411804393
position_covariance: [0.34222499999999995, 0.0, 0.0, 0.0, 0.34222499999999995, 0.0, 0.0, 0.0, 0.6839289999999999]
position_covariance_type: 2
---
header: 
  seq: 4629
  stamp: 
    secs: 1557852341
    nsecs: 345632256
  frame_id: "base_link"
status: 
  status: 0
  service: 1
latitude: 40.6338946
longitude: -8.660231
altitude: 64.8531810232
position_covariance: [0.343396, 0.0, 0.0, 0.0, 0.343396, 0.0, 0.0, 0.0, 0.6806249999999999]
position_covariance_type: 2
---
header: 
  seq: 4630
  stamp: 
    secs: 1557852341
    nsecs: 448629696
  frame_id: "base_link"
status: 
  status: 0
  service: 1
latitude: 40.6338948
longitude: -8.6602307
altitude: 64.8661819154
position_covariance: [0.343396, 0.0, 0.0, 0.0, 0.343396, 0.0, 0.0, 0.0, 0.6806249999999999]
position_covariance_type: 2
---
header: 
  seq: 4631
  stamp: 
    secs: 1557852341
    nsecs: 549626880
  frame_id: "base_link"
status: 
  status: 0
  service: 1
latitude: 40.633895
longitude: -8.6602305
altitude: 64.8761826129
position_covariance: [0.34456899999999996, 0.0, 0.0, 0.0, 0.34456899999999996, 0.0, 0.0, 0.0, 0.677329]
position_covariance_type: 2
---
header: 
  seq: 4632
  stamp: 
    secs: 1557852341
    nsecs: 646624320
  frame_id: "base_link"
status: 
  status: 0
  service: 1
latitude: 40.6338952
longitude: -8.6602303
altitude: 64.8821833105
position_covariance: [0.34456899999999996, 0.0, 0.0, 0.0, 0.34456899999999996, 0.0, 0.0, 0.0, 0.677329]
position_covariance_type: 2
---
header: 
  seq: 4633
  stamp: 
    secs: 1557852341
    nsecs: 746622016
  frame_id: "base_link"
status: 
  status: 0
  service: 1
latitude: 40.6338954
longitude: -8.6602301
altitude: 64.8911840081
position_covariance: [0.34456899999999996, 0.0, 0.0, 0.0, 0.34456899999999996, 0.0, 0.0, 0.0, 0.6740409999999999]
position_covariance_type: 2
---
header: 
  seq: 4634
  stamp: 
    secs: 1557852341
    nsecs: 843618944
  frame_id: "base_link"
status: 
  status: 0
  service: 1
latitude: 40.6338956
longitude: -8.6602299
altitude: 64.8981847056
position_covariance: [0.34456899999999996, 0.0, 0.0, 0.0, 0.34456899999999996, 0.0, 0.0, 0.0, 0.6740409999999999]
position_covariance_type: 2
---
header: 
  seq: 4635
  stamp: 
    secs: 1557852341
    nsecs: 947617408
  frame_id: "base_link"
status: 
  status: 0
  service: 1
latitude: 40.6338958
longitude: -8.6602297
altitude: 64.9001854032
position_covariance: [0.34456899999999996, 0.0, 0.0, 0.0, 0.34456899999999996, 0.0, 0.0, 0.0, 0.6707609999999999]
position_covariance_type: 2
---
header: 
  seq: 4636
  stamp: 
    secs: 1557852342
    nsecs:  43614592
  frame_id: "base_link"
status: 
  status: 0
  service: 1
latitude: 40.633896
longitude: -8.6602295
altitude: 64.9001861008
position_covariance: [0.34456899999999996, 0.0, 0.0, 0.0, 0.34456899999999996, 0.0, 0.0, 0.0, 0.6707609999999999]
position_covariance_type: 2
---
header: 
  seq: 4637
  stamp: 
    secs: 1557852342
    nsecs: 143612032
  frame_id: "base_link"
status: 
  status: 0
  service: 1
latitude: 40.6338962
longitude: -8.6602292
altitude: 64.8991869929
position_covariance: [0.34456899999999996, 0.0, 0.0, 0.0, 0.34456899999999996, 0.0, 0.0, 0.0, 0.6674889999999999]
position_covariance_type: 2
---
header: 
  seq: 4638
  stamp: 
    secs: 1557852342
    nsecs: 248609984
  frame_id: "base_link"
status: 
  status: 0
  service: 1
latitude: 40.6338963
longitude: -8.660229
altitude: 64.8981875363
position_covariance: [0.34456899999999996, 0.0, 0.0, 0.0, 0.34456899999999996, 0.0, 0.0, 0.0, 0.6674889999999999]
position_covariance_type: 2
---
header: 
  seq: 4639
  stamp: 
    secs: 1557852342
    nsecs: 344607424
  frame_id: "base_link"
status: 
  status: 0
  service: 1
latitude: 40.6338965
longitude: -8.6602287
altitude: 64.8951884285
position_covariance: [0.343396, 0.0, 0.0, 0.0, 0.343396, 0.0, 0.0, 0.0, 0.662596]
position_covariance_type: 2
---
header: 
  seq: 4640
  stamp: 
    secs: 1557852342
    nsecs: 444605376
  frame_id: "base_link"
status: 
  status: 0
  service: 1
latitude: 40.6338966
longitude: -8.6602285
altitude: 64.8891889719
position_covariance: [0.343396, 0.0, 0.0, 0.0, 0.343396, 0.0, 0.0, 0.0, 0.662596]
position_covariance_type: 2
---
header: 
  seq: 4641
  stamp: 
    secs: 1557852342
    nsecs: 548602560
  frame_id: "base_link"
status: 
  status: 0
  service: 1
latitude: 40.6338967
longitude: -8.6602282
altitude: 64.88418971
position_covariance: [0.343396, 0.0, 0.0, 0.0, 0.343396, 0.0, 0.0, 0.0, 0.664225]
position_covariance_type: 2
---
header: 
  seq: 4642
  stamp: 
    secs: 1557852342
    nsecs: 649598720
  frame_id: "base_link"
status: 
  status: 0
  service: 1
latitude: 40.6338968
longitude: -8.6602279
altitude: 64.879190448
position_covariance: [0.343396, 0.0, 0.0, 0.0, 0.343396, 0.0, 0.0, 0.0, 0.664225]
position_covariance_type: 2
---
header: 
  seq: 4643
  stamp: 
    secs: 1557852342
    nsecs: 745595136
  frame_id: "base_link"
status: 
  status: 0
  service: 1
latitude: 40.6338969
longitude: -8.6602276
altitude: 64.874191186
position_covariance: [0.343396, 0.0, 0.0, 0.0, 0.343396, 0.0, 0.0, 0.0, 0.664225]
position_covariance_type: 2
---
header: 
  seq: 4644
  stamp: 
    secs: 1557852342
    nsecs: 845594112
  frame_id: "base_link"
status: 
  status: 0
  service: 1
latitude: 40.6338969
longitude: -8.6602272
altitude: 64.8621919645
position_covariance: [0.343396, 0.0, 0.0, 0.0, 0.343396, 0.0, 0.0, 0.0, 0.664225]
position_covariance_type: 2
---
header: 
  seq: 4645
  stamp: 
    secs: 1557852342
    nsecs: 945591808
  frame_id: "base_link"
status: 
  status: 0
  service: 1
latitude: 40.633897
longitude: -8.6602269
altitude: 64.8541927025
position_covariance: [0.343396, 0.0, 0.0, 0.0, 0.343396, 0.0, 0.0, 0.0, 0.664225]
position_covariance_type: 2
---
header: 
  seq: 4646
  stamp: 
    secs: 1557852343
    nsecs:  45590528
  frame_id: "base_link"
status: 
  status: 0
  service: 1
latitude: 40.633897
longitude: -8.6602266
altitude: 64.8431932864
position_covariance: [0.343396, 0.0, 0.0, 0.0, 0.343396, 0.0, 0.0, 0.0, 0.664225]
position_covariance_type: 2
---
header: 
  seq: 4647
  stamp: 
    secs: 1557852343
    nsecs: 145588736
  frame_id: "base_link"
status: 
  status: 0
  service: 1
latitude: 40.6338971
longitude: -8.6602262
altitude: 64.832194219
position_covariance: [0.34222499999999995, 0.0, 0.0, 0.0, 0.34222499999999995, 0.0, 0.0, 0.0, 0.664225]
position_covariance_type: 2
---
header: 
  seq: 4648
  stamp: 
    secs: 1557852343
    nsecs: 246585664
  frame_id: "base_link"
status: 
  status: 0
  service: 1
latitude: 40.6338971
longitude: -8.6602259
altitude: 64.8131948029
position_covariance: [0.34222499999999995, 0.0, 0.0, 0.0, 0.34222499999999995, 0.0, 0.0, 0.0, 0.664225]
position_covariance_type: 2
---
header: 
  seq: 4649
  stamp: 
    secs: 1557852343
    nsecs: 346580800
  frame_id: "base_link"
status: 
  status: 0
  service: 1
latitude: 40.6338971
longitude: -8.6602256
altitude: 64.7951953867
position_covariance: [0.33756099999999994, 0.0, 0.0, 0.0, 0.33756099999999994, 0.0, 0.0, 0.0, 0.662596]
position_covariance_type: 2
---
header: 
  seq: 4650
  stamp: 
    secs: 1557852343
    nsecs: 446579520
  frame_id: "base_link"
status: 
  status: 0
  service: 1
latitude: 40.6338971
longitude: -8.6602253
altitude: 64.7761959706
position_covariance: [0.33756099999999994, 0.0, 0.0, 0.0, 0.33756099999999994, 0.0, 0.0, 0.0, 0.662596]
position_covariance_type: 2
---
header: 
  seq: 4651
  stamp: 
    secs: 1557852343
    nsecs: 547576448
  frame_id: "base_link"
status: 
  status: 0
  service: 1
latitude: 40.633897
longitude: -8.6602249
altitude: 64.7571965949
position_covariance: [0.33408399999999994, 0.0, 0.0, 0.0, 0.33408399999999994, 0.0, 0.0, 0.0, 0.6577210000000001]
position_covariance_type: 2
---
header: 
  seq: 4652
  stamp: 
    secs: 1557852343
    nsecs: 647574656
  frame_id: "base_link"
status: 
  status: 0
  service: 1
latitude: 40.633897
longitude: -8.6602246
altitude: 64.7321971788
position_covariance: [0.33408399999999994, 0.0, 0.0, 0.0, 0.33408399999999994, 0.0, 0.0, 0.0, 0.6577210000000001]
position_covariance_type: 2
---
header: 
  seq: 4653
  stamp: 
    secs: 1557852343
    nsecs: 743571584
  frame_id: "base_link"
status: 
  status: 0
  service: 1
latitude: 40.6338969
longitude: -8.6602243
altitude: 64.7081976085
position_covariance: [0.33062499999999995, 0.0, 0.0, 0.0, 0.33062499999999995, 0.0, 0.0, 0.0, 0.6512490000000001]
position_covariance_type: 2
---
header: 
  seq: 4654
  stamp: 
    secs: 1557852343
    nsecs: 844570304
  frame_id: "base_link"
status: 
  status: 0
  service: 1
latitude: 40.6338968
longitude: -8.660224
altitude: 64.6781980382
position_covariance: [0.33062499999999995, 0.0, 0.0, 0.0, 0.33062499999999995, 0.0, 0.0, 0.0, 0.6512490000000001]
position_covariance_type: 2
---
header: 
  seq: 4655
  stamp: 
    secs: 1557852343
    nsecs: 944568256
  frame_id: "base_link"
status: 
  status: 0
  service: 1
latitude: 40.6338967
longitude: -8.6602236
altitude: 64.6451986625
position_covariance: [0.3271839999999999, 0.0, 0.0, 0.0, 0.3271839999999999, 0.0, 0.0, 0.0, 0.6464160000000001]
position_covariance_type: 2
---
header: 
  seq: 4656
  stamp: 
    secs: 1557852344
    nsecs:  48564160
  frame_id: "base_link"
status: 
  status: 0
  service: 1
latitude: 40.6338965
longitude: -8.6602233
altitude: 64.610198938
position_covariance: [0.3271839999999999, 0.0, 0.0, 0.0, 0.3271839999999999, 0.0, 0.0, 0.0, 0.6464160000000001]
position_covariance_type: 2
---
header: 
  seq: 4657
  stamp: 
    secs: 1557852344
    nsecs: 144560320
  frame_id: "base_link"
status: 
  status: 0
  service: 1
latitude: 40.6338963
longitude: -8.6602229
altitude: 64.5781994082
position_covariance: [0.33524099999999996, 0.0, 0.0, 0.0, 0.33524099999999996, 0.0, 0.0, 0.0, 0.664225]
position_covariance_type: 2
---
header: 
  seq: 4658
  stamp: 
    secs: 1557852344
    nsecs: 249557504
  frame_id: "base_link"
status: 
  status: 0
  service: 1
latitude: 40.6338962
longitude: -8.6602225
altitude: 64.5392000325
position_covariance: [0.33524099999999996, 0.0, 0.0, 0.0, 0.33524099999999996, 0.0, 0.0, 0.0, 0.664225]
position_covariance_type: 2
---
header: 
  seq: 4659
  stamp: 
    secs: 1557852344
    nsecs: 345554176
  frame_id: "base_link"
status: 
  status: 0
  service: 1
latitude: 40.633896
longitude: -8.6602222
altitude: 64.5012003081
position_covariance: [0.351649, 0.0, 0.0, 0.0, 0.351649, 0.0, 0.0, 0.0, 0.6872409999999999]
position_covariance_type: 2
---
header: 
  seq: 4660
  stamp: 
    secs: 1557852344
    nsecs: 448553408
  frame_id: "base_link"
status: 
  status: 0
  service: 1
latitude: 40.6338958
longitude: -8.6602218
altitude: 64.4612007782
position_covariance: [0.351649, 0.0, 0.0, 0.0, 0.351649, 0.0, 0.0, 0.0, 0.6872409999999999]
position_covariance_type: 2
---
header: 
  seq: 4661
  stamp: 
    secs: 1557852344
    nsecs: 545551616
  frame_id: "base_link"
status: 
  status: 0
  service: 1
latitude: 40.6338956
longitude: -8.6602214
altitude: 64.4192012484
position_covariance: [0.36844899999999997, 0.0, 0.0, 0.0, 0.36844899999999997, 0.0, 0.0, 0.0, 0.7140249999999999]
position_covariance_type: 2
---
header: 
  seq: 4662
  stamp: 
    secs: 1557852344
    nsecs: 645549568
  frame_id: "base_link"
status: 
  status: 0
  service: 1
latitude: 40.6338954
longitude: -8.6602211
altitude: 64.3692015239
position_covariance: [0.36844899999999997, 0.0, 0.0, 0.0, 0.36844899999999997, 0.0, 0.0, 0.0, 0.7140249999999999]
position_covariance_type: 2
---
header: 
  seq: 4663
  stamp: 
    secs: 1557852344
    nsecs: 745547520
  frame_id: "base_link"
status: 
  status: 0
  service: 1
latitude: 40.6338952
longitude: -8.6602208
altitude: 64.3172017994
position_covariance: [0.381924, 0.0, 0.0, 0.0, 0.381924, 0.0, 0.0, 0.0, 0.734449]
position_covariance_type: 2
---
header: 
  seq: 4664
  stamp: 
    secs: 1557852344
    nsecs: 846544704
  frame_id: "base_link"
status: 
  status: 0
  service: 1
latitude: 40.6338952
longitude: -8.6602204
altitude: 64.2562025779
position_covariance: [0.381924, 0.0, 0.0, 0.0, 0.381924, 0.0, 0.0, 0.0, 0.734449]
position_covariance_type: 2
---
header: 
  seq: 4665
  stamp: 
    secs: 1557852344
    nsecs: 946542656
  frame_id: "base_link"
status: 
  status: 0
  service: 1
latitude: 40.6338953
longitude: -8.6602201
altitude: 64.1952033159
position_covariance: [0.391876, 0.0, 0.0, 0.0, 0.391876, 0.0, 0.0, 0.0, 0.7516889999999999]
position_covariance_type: 2
---
header: 
  seq: 4666
  stamp: 
    secs: 1557852345
    nsecs:  46539840
  frame_id: "base_link"
status: 
  status: 0
  service: 1
latitude: 40.6338955
longitude: -8.6602197
altitude: 64.1302044027
position_covariance: [0.391876, 0.0, 0.0, 0.0, 0.391876, 0.0, 0.0, 0.0, 0.7516889999999999]
position_covariance_type: 2
---
header: 
  seq: 4667
  stamp: 
    secs: 1557852345
    nsecs: 146537024
  frame_id: "base_link"
status: 
  status: 0
  service: 1
latitude: 40.6338957
longitude: -8.6602193
altitude: 64.0722054895
position_covariance: [0.400689, 0.0, 0.0, 0.0, 0.400689, 0.0, 0.0, 0.0, 0.7569]
position_covariance_type: 2
---
header: 
  seq: 4668
  stamp: 
    secs: 1557852345
    nsecs: 247536000
  frame_id: "base_link"
status: 
  status: 0
  service: 1
latitude: 40.6338959
longitude: -8.6602189
altitude: 64.0282065763
position_covariance: [0.400689, 0.0, 0.0, 0.0, 0.400689, 0.0, 0.0, 0.0, 0.7569]
position_covariance_type: 2
---
header: 
  seq: 4669
  stamp: 
    secs: 1557852345
    nsecs: 347534720
  frame_id: "base_link"
status: 
  status: 0
  service: 1
latitude: 40.633896
longitude: -8.6602185
altitude: 64.005207509
position_covariance: [0.399424, 0.0, 0.0, 0.0, 0.399424, 0.0, 0.0, 0.0, 0.749956]
position_covariance_type: 2
---
header: 
  seq: 4670
  stamp: 
    secs: 1557852345
    nsecs: 447532160
  frame_id: "base_link"
status: 
  status: 0
  service: 1
latitude: 40.6338962
longitude: -8.6602181
altitude: 63.9962085958
position_covariance: [0.399424, 0.0, 0.0, 0.0, 0.399424, 0.0, 0.0, 0.0, 0.749956]
position_covariance_type: 2
---
header: 
  seq: 4671
  stamp: 
    secs: 1557852345
    nsecs: 544529344
  frame_id: "base_link"
status: 
  status: 0
  service: 1
latitude: 40.6338962
longitude: -8.6602177
altitude: 64.0042093743
position_covariance: [0.399424, 0.0, 0.0, 0.0, 0.399424, 0.0, 0.0, 0.0, 0.755161]
position_covariance_type: 2
---
header: 
  seq: 4672
  stamp: 
    secs: 1557852345
    nsecs: 644526272
  frame_id: "base_link"
status: 
  status: 0
  service: 1
latitude: 40.6338963
longitude: -8.6602173
altitude: 64.0322103069
position_covariance: [0.399424, 0.0, 0.0, 0.0, 0.399424, 0.0, 0.0, 0.0, 0.755161]
position_covariance_type: 2
---
header: 
  seq: 4673
  stamp: 
    secs: 1557852345
    nsecs: 748523200
  frame_id: "base_link"
status: 
  status: 0
  service: 1
latitude: 40.6338964
longitude: -8.6602169
altitude: 64.0762112395
position_covariance: [0.399424, 0.0, 0.0, 0.0, 0.399424, 0.0, 0.0, 0.0, 0.7516889999999999]
position_covariance_type: 2
---
header: 
  seq: 4674
  stamp: 
    secs: 1557852345
    nsecs: 844521408
  frame_id: "base_link"
status: 
  status: 0
  service: 1
latitude: 40.6338964
longitude: -8.6602166
altitude: 64.1242118234
position_covariance: [0.399424, 0.0, 0.0, 0.0, 0.399424, 0.0, 0.0, 0.0, 0.7516889999999999]
position_covariance_type: 2
---
header: 
  seq: 4675
  stamp: 
    secs: 1557852345
    nsecs: 948516800
  frame_id: "base_link"
status: 
  status: 0
  service: 1
latitude: 40.6338964
longitude: -8.6602162
altitude: 64.1832126019
position_covariance: [0.399424, 0.0, 0.0, 0.0, 0.399424, 0.0, 0.0, 0.0, 0.749956]
position_covariance_type: 2
---
header: 
  seq: 4676
  stamp: 
    secs: 1557852346
    nsecs:  45514496
  frame_id: "base_link"
status: 
  status: 0
  service: 1
latitude: 40.6338964
longitude: -8.6602159
altitude: 64.2372131857
position_covariance: [0.399424, 0.0, 0.0, 0.0, 0.399424, 0.0, 0.0, 0.0, 0.749956]
position_covariance_type: 2
---
header: 
  seq: 4677
  stamp: 
    secs: 1557852346
    nsecs: 149509888
  frame_id: "base_link"
status: 
  status: 0
  service: 1
latitude: 40.6338964
longitude: -8.6602155
altitude: 64.2892139642
position_covariance: [0.395641, 0.0, 0.0, 0.0, 0.395641, 0.0, 0.0, 0.0, 0.749956]
position_covariance_type: 2
---
header: 
  seq: 4678
  stamp: 
    secs: 1557852346
    nsecs: 246506816
  frame_id: "base_link"
status: 
  status: 0
  service: 1
latitude: 40.6338964
longitude: -8.6602152
altitude: 64.3352145481
position_covariance: [0.395641, 0.0, 0.0, 0.0, 0.395641, 0.0, 0.0, 0.0, 0.749956]
position_covariance_type: 2
---
header: 
  seq: 4679
  stamp: 
    secs: 1557852346
    nsecs: 346502464
  frame_id: "base_link"
status: 
  status: 0
  service: 1
latitude: 40.6338964
longitude: -8.6602148
altitude: 64.3802153265
position_covariance: [0.395641, 0.0, 0.0, 0.0, 0.395641, 0.0, 0.0, 0.0, 0.744769]
position_covariance_type: 2
---
header: 
  seq: 4680
  stamp: 
    secs: 1557852346
    nsecs: 447500928
  frame_id: "base_link"
status: 
  status: 0
  service: 1
latitude: 40.6338963
longitude: -8.6602145
altitude: 64.4242157562
position_covariance: [0.395641, 0.0, 0.0, 0.0, 0.395641, 0.0, 0.0, 0.0, 0.744769]
position_covariance_type: 2
---
header: 
  seq: 4681
  stamp: 
    secs: 1557852346
    nsecs: 547498624
  frame_id: "base_link"
status: 
  status: 0
  service: 1
latitude: 40.6338963
longitude: -8.6602142
altitude: 64.4572163401
position_covariance: [0.395641, 0.0, 0.0, 0.0, 0.395641, 0.0, 0.0, 0.0, 0.7464959999999999]
position_covariance_type: 2
---
header: 
  seq: 4682
  stamp: 
    secs: 1557852346
    nsecs: 647496320
  frame_id: "base_link"
status: 
  status: 0
  service: 1
latitude: 40.6338963
longitude: -8.6602138
altitude: 64.4562171186
position_covariance: [0.395641, 0.0, 0.0, 0.0, 0.395641, 0.0, 0.0, 0.0, 0.7464959999999999]
position_covariance_type: 2
---
header: 
  seq: 4683
  stamp: 
    secs: 1557852346
    nsecs: 743494272
  frame_id: "base_link"
status: 
  status: 0
  service: 1
latitude: 40.6338963
longitude: -8.6602135
altitude: 64.4222177024
position_covariance: [0.393129, 0.0, 0.0, 0.0, 0.393129, 0.0, 0.0, 0.0, 0.744769]
position_covariance_type: 2
---
header: 
  seq: 4684
  stamp: 
    secs: 1557852346
    nsecs: 844491968
  frame_id: "base_link"
status: 
  status: 0
  service: 1
latitude: 40.6338963
longitude: -8.6602132
altitude: 64.3632182863
position_covariance: [0.393129, 0.0, 0.0, 0.0, 0.393129, 0.0, 0.0, 0.0, 0.744769]
position_covariance_type: 2
---
header: 
  seq: 4685
  stamp: 
    secs: 1557852346
    nsecs: 948488896
  frame_id: "base_link"
status: 
  status: 0
  service: 1
latitude: 40.6338963
longitude: -8.6602128
altitude: 64.2952190648
position_covariance: [0.388129, 0.0, 0.0, 0.0, 0.388129, 0.0, 0.0, 0.0, 0.7430439999999999]
position_covariance_type: 2
---
header: 
  seq: 4686
  stamp: 
    secs: 1557852347
    nsecs:  48485568
  frame_id: "base_link"
status: 
  status: 0
  service: 1
latitude: 40.6338963
longitude: -8.6602125
altitude: 64.2342196486
position_covariance: [0.388129, 0.0, 0.0, 0.0, 0.388129, 0.0, 0.0, 0.0, 0.7430439999999999]
position_covariance_type: 2
---
header: 
  seq: 4687
  stamp: 
    secs: 1557852347
    nsecs: 149481472
  frame_id: "base_link"
status: 
  status: 0
  service: 1
latitude: 40.6338963
longitude: -8.6602121
altitude: 64.1952204271
position_covariance: [0.385641, 0.0, 0.0, 0.0, 0.385641, 0.0, 0.0, 0.0, 0.741321]
position_covariance_type: 2
---
header: 
  seq: 4688
  stamp: 
    secs: 1557852347
    nsecs: 248478144
  frame_id: "base_link"
status: 
  status: 0
  service: 1
latitude: 40.6338962
longitude: -8.6602118
altitude: 64.1872208568
position_covariance: [0.385641, 0.0, 0.0, 0.0, 0.385641, 0.0, 0.0, 0.0, 0.741321]
position_covariance_type: 2
---
header: 
  seq: 4689
  stamp: 
    secs: 1557852347
    nsecs: 348474304
  frame_id: "base_link"
status: 
  status: 0
  service: 1
latitude: 40.6338962
longitude: -8.6602115
altitude: 64.2122214406
position_covariance: [0.383161, 0.0, 0.0, 0.0, 0.383161, 0.0, 0.0, 0.0, 0.7361639999999999]
position_covariance_type: 2
---
header: 
  seq: 4690
  stamp: 
    secs: 1557852347
    nsecs: 446471744
  frame_id: "base_link"
status: 
  status: 0
  service: 1
latitude: 40.6338961
longitude: -8.6602113
altitude: 64.2712216757
position_covariance: [0.383161, 0.0, 0.0, 0.0, 0.383161, 0.0, 0.0, 0.0, 0.7361639999999999]
position_covariance_type: 2
---
header: 
  seq: 4691
  stamp: 
    secs: 1557852347
    nsecs: 546469440
  frame_id: "base_link"
status: 
  status: 0
  service: 1
latitude: 40.6338961
longitude: -8.660211
altitude: 64.3522222596
position_covariance: [0.383161, 0.0, 0.0, 0.0, 0.383161, 0.0, 0.0, 0.0, 0.734449]
position_covariance_type: 2
---
header: 
  seq: 4692
  stamp: 
    secs: 1557852347
    nsecs: 646467392
  frame_id: "base_link"
status: 
  status: 0
  service: 1
latitude: 40.633896
longitude: -8.6602108
altitude: 64.4332224946
position_covariance: [0.383161, 0.0, 0.0, 0.0, 0.383161, 0.0, 0.0, 0.0, 0.734449]
position_covariance_type: 2
---
header: 
  seq: 4693
  stamp: 
    secs: 1557852347
    nsecs: 747464064
  frame_id: "base_link"
status: 
  status: 0
  service: 1
latitude: 40.6338959
longitude: -8.6602105
altitude: 64.4912229243
position_covariance: [0.3844, 0.0, 0.0, 0.0, 0.3844, 0.0, 0.0, 0.0, 0.7327359999999999]
position_covariance_type: 2
---
header: 
  seq: 4694
  stamp: 
    secs: 1557852347
    nsecs: 847462272
  frame_id: "base_link"
status: 
  status: 0
  service: 1
latitude: 40.6338958
longitude: -8.6602103
altitude: 64.5302231594
position_covariance: [0.3844, 0.0, 0.0, 0.0, 0.3844, 0.0, 0.0, 0.0, 0.7327359999999999]
position_covariance_type: 2
---
header: 
  seq: 4695
  stamp: 
    secs: 1557852347
    nsecs: 947459456
  frame_id: "base_link"
status: 
  status: 0
  service: 1
latitude: 40.6338957
longitude: -8.6602101
altitude: 64.5532233945
position_covariance: [0.385641, 0.0, 0.0, 0.0, 0.385641, 0.0, 0.0, 0.0, 0.729316]
position_covariance_type: 2
---
header: 
  seq: 4696
  stamp: 
    secs: 1557852348
    nsecs:  44456640
  frame_id: "base_link"
status: 
  status: 0
  service: 1
latitude: 40.6338956
longitude: -8.6602099
altitude: 64.5682236296
position_covariance: [0.385641, 0.0, 0.0, 0.0, 0.385641, 0.0, 0.0, 0.0, 0.729316]
position_covariance_type: 2
---
header: 
  seq: 4697
  stamp: 
    secs: 1557852348
    nsecs: 148454080
  frame_id: "base_link"
status: 
  status: 0
  service: 1
latitude: 40.6338955
longitude: -8.6602097
altitude: 64.5812238646
position_covariance: [0.386884, 0.0, 0.0, 0.0, 0.386884, 0.0, 0.0, 0.0, 0.727609]
position_covariance_type: 2
---
header: 
  seq: 4698
  stamp: 
    secs: 1557852348
    nsecs: 244452544
  frame_id: "base_link"
status: 
  status: 0
  service: 1
latitude: 40.6338953
longitude: -8.6602095
altitude: 64.5892239455
position_covariance: [0.386884, 0.0, 0.0, 0.0, 0.386884, 0.0, 0.0, 0.0, 0.727609]
position_covariance_type: 2
---
header: 
  seq: 4699
  stamp: 
    secs: 1557852348
    nsecs: 348449728
  frame_id: "base_link"
status: 
  status: 0
  service: 1
latitude: 40.6338951
longitude: -8.6602092
altitude: 64.5952242211
position_covariance: [0.388129, 0.0, 0.0, 0.0, 0.388129, 0.0, 0.0, 0.0, 0.725904]
position_covariance_type: 2
---
header: 
  seq: 4700
  stamp: 
    secs: 1557852348
    nsecs: 449446144
  frame_id: "base_link"
status: 
  status: 0
  service: 1
latitude: 40.633895
longitude: -8.660209
altitude: 64.6032244561
position_covariance: [0.388129, 0.0, 0.0, 0.0, 0.388129, 0.0, 0.0, 0.0, 0.725904]
position_covariance_type: 2
---
header: 
  seq: 4701
  stamp: 
    secs: 1557852348
    nsecs: 549442816
  frame_id: "base_link"
status: 
  status: 0
  service: 1
latitude: 40.6338948
longitude: -8.6602087
altitude: 64.6132247317
position_covariance: [0.389376, 0.0, 0.0, 0.0, 0.389376, 0.0, 0.0, 0.0, 0.724201]
position_covariance_type: 2
---
header: 
  seq: 4702
  stamp: 
    secs: 1557852348
    nsecs: 649439488
  frame_id: "base_link"
status: 
  status: 0
  service: 1
latitude: 40.6338946
longitude: -8.6602084
altitude: 64.6292250072
position_covariance: [0.389376, 0.0, 0.0, 0.0, 0.389376, 0.0, 0.0, 0.0, 0.724201]
position_covariance_type: 2
---
header: 
  seq: 4703
  stamp: 
    secs: 1557852348
    nsecs: 746437184
  frame_id: "base_link"
status: 
  status: 0
  service: 1
latitude: 40.6338944
longitude: -8.6602082
altitude: 64.6442250881
position_covariance: [0.388129, 0.0, 0.0, 0.0, 0.388129, 0.0, 0.0, 0.0, 0.7224999999999999]
position_covariance_type: 2
---
header: 
  seq: 4704
  stamp: 
    secs: 1557852348
    nsecs: 846435648
  frame_id: "base_link"
status: 
  status: 0
  service: 1
latitude: 40.6338942
longitude: -8.6602079
altitude: 64.6592253637
position_covariance: [0.388129, 0.0, 0.0, 0.0, 0.388129, 0.0, 0.0, 0.0, 0.7224999999999999]
position_covariance_type: 2
---
header: 
  seq: 4705
  stamp: 
    secs: 1557852348
    nsecs: 947434112
  frame_id: "base_link"
status: 
  status: 0
  service: 1
latitude: 40.633894
longitude: -8.6602076
altitude: 64.6712256392
position_covariance: [0.386884, 0.0, 0.0, 0.0, 0.386884, 0.0, 0.0, 0.0, 0.7208009999999999]
position_covariance_type: 2
---
header: 
  seq: 4706
  stamp: 
    secs: 1557852349
    nsecs:  47431552
  frame_id: "base_link"
status: 
  status: 0
  service: 1
latitude: 40.6338938
longitude: -8.6602073
altitude: 64.6812259147
position_covariance: [0.386884, 0.0, 0.0, 0.0, 0.386884, 0.0, 0.0, 0.0, 0.7208009999999999]
position_covariance_type: 2
---
header: 
  seq: 4707
  stamp: 
    secs: 1557852349
    nsecs: 143428480
  frame_id: "base_link"
status: 
  status: 0
  service: 1
latitude: 40.6338936
longitude: -8.6602071
altitude: 64.6912259956
position_covariance: [0.388129, 0.0, 0.0, 0.0, 0.388129, 0.0, 0.0, 0.0, 0.7208009999999999]
position_covariance_type: 2
---
header: 
  seq: 4708
  stamp: 
    secs: 1557852349
    nsecs: 247425664
  frame_id: "base_link"
status: 
  status: 0
  service: 1
latitude: 40.6338933
longitude: -8.6602069
altitude: 64.7072259224
position_covariance: [0.388129, 0.0, 0.0, 0.0, 0.388129, 0.0, 0.0, 0.0, 0.7208009999999999]
position_covariance_type: 2
---
header: 
  seq: 4709
  stamp: 
    secs: 1557852349
    nsecs: 348421568
  frame_id: "base_link"
status: 
  status: 0
  service: 1
latitude: 40.6338931
longitude: -8.6602066
altitude: 64.7232261979
position_covariance: [0.389376, 0.0, 0.0, 0.0, 0.389376, 0.0, 0.0, 0.0, 0.719104]
position_covariance_type: 2
---
header: 
  seq: 4710
  stamp: 
    secs: 1557852349
    nsecs: 448417728
  frame_id: "base_link"
status: 
  status: 0
  service: 1
latitude: 40.6338928
longitude: -8.6602064
altitude: 64.7352261247
position_covariance: [0.389376, 0.0, 0.0, 0.0, 0.389376, 0.0, 0.0, 0.0, 0.719104]
position_covariance_type: 2
---
header: 
  seq: 4711
  stamp: 
    secs: 1557852349
    nsecs: 548413888
  frame_id: "base_link"
status: 
  status: 0
  service: 1
latitude: 40.6338926
longitude: -8.6602062
altitude: 64.7482262056
position_covariance: [0.391876, 0.0, 0.0, 0.0, 0.391876, 0.0, 0.0, 0.0, 0.7224999999999999]
position_covariance_type: 2
---
header: 
  seq: 4712
  stamp: 
    secs: 1557852349
    nsecs: 648409024
  frame_id: "base_link"
status: 
  status: 0
  service: 1
latitude: 40.6338923
longitude: -8.660206
altitude: 64.7622261323
position_covariance: [0.391876, 0.0, 0.0, 0.0, 0.391876, 0.0, 0.0, 0.0, 0.7224999999999999]
position_covariance_type: 2
---
header: 
  seq: 4713
  stamp: 
    secs: 1557852349
    nsecs: 749405696
  frame_id: "base_link"
status: 
  status: 0
  service: 1
latitude: 40.6338921
longitude: -8.6602058
altitude: 64.7752262132
position_covariance: [0.394384, 0.0, 0.0, 0.0, 0.394384, 0.0, 0.0, 0.0, 0.727609]
position_covariance_type: 2
---
header: 
  seq: 4714
  stamp: 
    secs: 1557852349
    nsecs: 849401344
  frame_id: "base_link"
status: 
  status: 0
  service: 1
latitude: 40.6338918
longitude: -8.6602056
altitude: 64.79222614
position_covariance: [0.394384, 0.0, 0.0, 0.0, 0.394384, 0.0, 0.0, 0.0, 0.727609]
position_covariance_type: 2
---
header: 
  seq: 4715
  stamp: 
    secs: 1557852349
    nsecs: 945398528
  frame_id: "base_link"
status: 
  status: 0
  service: 1
latitude: 40.6338915
longitude: -8.6602055
altitude: 64.8122258721
position_covariance: [0.395641, 0.0, 0.0, 0.0, 0.395641, 0.0, 0.0, 0.0, 0.725904]
position_covariance_type: 2
---
header: 
  seq: 4716
  stamp: 
    secs: 1557852350
    nsecs:  46397248
  frame_id: "base_link"
status: 
  status: 0
  service: 1
latitude: 40.6338912
longitude: -8.6602053
altitude: 64.8352257989
position_covariance: [0.395641, 0.0, 0.0, 0.0, 0.395641, 0.0, 0.0, 0.0, 0.725904]
position_covariance_type: 2
---
header: 
  seq: 4717
  stamp: 
    secs: 1557852350
    nsecs: 146396480
  frame_id: "base_link"
status: 
  status: 0
  service: 1
latitude: 40.633891
longitude: -8.6602051
altitude: 64.8552258798
position_covariance: [0.395641, 0.0, 0.0, 0.0, 0.395641, 0.0, 0.0, 0.0, 0.724201]
position_covariance_type: 2
---
header: 
  seq: 4718
  stamp: 
    secs: 1557852350
    nsecs: 247394176
  frame_id: "base_link"
status: 
  status: 0
  service: 1
latitude: 40.6338907
longitude: -8.6602049
altitude: 64.8742258065
position_covariance: [0.395641, 0.0, 0.0, 0.0, 0.395641, 0.0, 0.0, 0.0, 0.724201]
position_covariance_type: 2
---
header: 
  seq: 4719
  stamp: 
    secs: 1557852350
    nsecs: 343392128
  frame_id: "base_link"
status: 
  status: 0
  service: 1
latitude: 40.6338905
longitude: -8.6602047
altitude: 64.8932258874
position_covariance: [0.39690000000000003, 0.0, 0.0, 0.0, 0.39690000000000003, 0.0, 0.0, 0.0, 0.7224999999999999]
position_covariance_type: 2
---
header: 
  seq: 4720
  stamp: 
    secs: 1557852350
    nsecs: 443391360
  frame_id: "base_link"
status: 
  status: 0
  service: 1
latitude: 40.6338902
longitude: -8.6602045
altitude: 64.9152258142
position_covariance: [0.39690000000000003, 0.0, 0.0, 0.0, 0.39690000000000003, 0.0, 0.0, 0.0, 0.7224999999999999]
position_covariance_type: 2
---
header: 
  seq: 4721
  stamp: 
    secs: 1557852350
    nsecs: 548389568
  frame_id: "base_link"
status: 
  status: 0
  service: 1
latitude: 40.6338899
longitude: -8.6602044
altitude: 64.9382255463
position_covariance: [0.399424, 0.0, 0.0, 0.0, 0.399424, 0.0, 0.0, 0.0, 0.7208009999999999]
position_covariance_type: 2
---
header: 
  seq: 4722
  stamp: 
    secs: 1557852350
    nsecs: 648387264
  frame_id: "base_link"
status: 
  status: 0
  service: 1
latitude: 40.6338897
longitude: -8.6602042
altitude: 64.9602256272
position_covariance: [0.399424, 0.0, 0.0, 0.0, 0.399424, 0.0, 0.0, 0.0, 0.7208009999999999]
position_covariance_type: 2
---
header: 
  seq: 4723
  stamp: 
    secs: 1557852350
    nsecs: 744384960
  frame_id: "base_link"
status: 
  status: 0
  service: 1
latitude: 40.6338895
longitude: -8.6602041
altitude: 64.9772255135
position_covariance: [0.400689, 0.0, 0.0, 0.0, 0.400689, 0.0, 0.0, 0.0, 0.7208009999999999]
position_covariance_type: 2
---
header: 
  seq: 4724
  stamp: 
    secs: 1557852350
    nsecs: 848383680
  frame_id: "base_link"
status: 
  status: 0
  service: 1
latitude: 40.6338892
longitude: -8.660204
altitude: 64.9962252457
position_covariance: [0.400689, 0.0, 0.0, 0.0, 0.400689, 0.0, 0.0, 0.0, 0.7208009999999999]
position_covariance_type: 2
---
header: 
  seq: 4725
  stamp: 
    secs: 1557852350
    nsecs: 945379840
  frame_id: "base_link"
status: 
  status: 0
  service: 1
latitude: 40.633889
longitude: -8.6602038
altitude: 65.0132253266
position_covariance: [0.403225, 0.0, 0.0, 0.0, 0.403225, 0.0, 0.0, 0.0, 0.725904]
position_covariance_type: 2
---
header: 
  seq: 4726
  stamp: 
    secs: 1557852351
    nsecs:  49375232
  frame_id: "base_link"
status: 
  status: 0
  service: 1
latitude: 40.6338887
longitude: -8.6602037
altitude: 65.0332250587
position_covariance: [0.403225, 0.0, 0.0, 0.0, 0.403225, 0.0, 0.0, 0.0, 0.725904]
position_covariance_type: 2
---
header: 
  seq: 4727
  stamp: 
    secs: 1557852351
    nsecs: 149371648
  frame_id: "base_link"
status: 
  status: 0
  service: 1
latitude: 40.6338884
longitude: -8.6602036
altitude: 65.0552247908
position_covariance: [0.405769, 0.0, 0.0, 0.0, 0.405769, 0.0, 0.0, 0.0, 0.7327359999999999]
position_covariance_type: 2
---
header: 
  seq: 4728
  stamp: 
    secs: 1557852351
    nsecs: 246370112
  frame_id: "base_link"
status: 
  status: 0
  service: 1
latitude: 40.6338881
longitude: -8.6602035
altitude: 65.078224523
position_covariance: [0.405769, 0.0, 0.0, 0.0, 0.405769, 0.0, 0.0, 0.0, 0.7327359999999999]
position_covariance_type: 2
---
header: 
  seq: 4729
  stamp: 
    secs: 1557852351
    nsecs: 346362944
  frame_id: "base_link"
status: 
  status: 0
  service: 1
latitude: 40.6338879
longitude: -8.6602034
altitude: 65.0992244093
position_covariance: [0.408321, 0.0, 0.0, 0.0, 0.408321, 0.0, 0.0, 0.0, 0.7395999999999999]
position_covariance_type: 2
---
header: 
